lat,lng,median_home_value,median_household_income,occupied_housing_units,population,Zip,City,State,Median_Home_Value_Z,Top_Tier_Median_Home_Value,Bottom_Tier_Median_Home_Value
40.8,-73.97,934600.0,68516.0,44432.0,94600.0,10025,New York,NY,1167725.0,1300000.0,0.0
41.94,-87.66,392500.0,75885.0,37865.0,65996.0,60657,Chicago,IL,450000.0,585000.0,0.0
29.74,-95.84,262100.0,126425.0,19282.0,61600.0,77494,Katy,TX,364575.0,399900.0,0.0
41.92,-87.65,489300.0,86215.0,34850.0,66617.0,60614,Chicago,IL,695000.0,799000.0,0.0
31.78,-106.31,121700.0,52024.0,34452.0,111086.0,79936,El Paso,TX,146500.0,220000.0,96750.0
29.83,-95.73,118500.0,65420.0,27742.0,94382.0,77449,Katy,TX,198000.0,0.0,150000.0
29.83,-95.66,124300.0,62785.0,31473.0,95137.0,77084,Houston,TX,190000.0,0.0,149000.0
40.72,-73.99,535600.0,33218.0,32925.0,81410.0,10002,New York,NY,1580000.0,1625000.0,0.0
41.97,-87.66,266900.0,46974.0,34315.0,65790.0,60640,Chicago,IL,274900.0,410000.0,134900.0
37.79,-122.42,723200.0,60722.0,33342.0,55984.0,94109,San Francisco,CA,1035000.0,2270000.0,0.0
40.65,-73.96,480500.0,40734.0,36101.0,101572.0,11226,New York,NY,599500.0,829500.0,0.0
0.0,0.0,0.0,0.0,0.0,0.0,00926,San Juan,AL,160000.0,0.0,0.0
40.74,-73.97,759600.0,105324.0,32173.0,54183.0,10016,New York,NY,1449500.0,1505000.0,0.0
36.05,-86.64,147200.0,47455.0,30473.0,78406.0,37013,Nashville,TN,220900.0,0.0,171750.0
28.92,-82.0,221700.0,56133.0,24911.0,45180.0,32162,The Villages,FL,279900.0,349900.0,199900.0
40.72,-73.85,358300.0,72000.0,32547.0,68733.0,11375,New York,NY,532250.0,995000.0,278500.0
40.58,-73.95,531000.0,41639.0,33886.0,79132.0,11235,New York,NY,599000.0,936499.5,259000.0
30.43,-97.6,165700.0,76007.0,22847.0,68789.0,78660,Pflugerville,TX,273990.0,0.0,227588.0
33.91,-118.35,397500.0,45995.0,31087.0,93193.0,90250,Hawthorne,CA,629000.0,0.0,0.0
41.92,-87.7,333000.0,51675.0,34330.0,87291.0,60647,Chicago,IL,475000.0,539000.0,0.0
36.07,-86.72,164400.0,43251.0,29260.0,74755.0,37211,Nashville,TN,287000.0,402874.5,0.0
40.79,-73.95,787000.0,31888.0,29378.0,76003.0,10029,New York,NY,880000.0,921500.0,0.0
40.73,-73.98,672800.0,59929.0,30182.0,61347.0,10009,New York,NY,1645000.0,1950000.0,0.0
41.95,-87.7,336300.0,55577.0,35407.0,92084.0,60618,Chicago,IL,472450.0,549650.0,0.0
29.5,-95.09,182300.0,92559.0,25444.0,71580.0,77573,League City,TX,309900.0,349900.0,0.0
29.54,-95.35,189600.0,94103.0,23722.0,70228.0,77584,Pearland,TX,294500.0,349450.0,0.0
35.34,-80.79,164100.0,60070.0,27076.0,71048.0,28269,Charlotte,NC,216460.0,330000.0,135000.0
38.91,-76.98,428500.0,65000.0,22973.0,52370.0,20002,Washington,DC,649700.0,729949.5,0.0
29.7,-98.1,152000.0,54672.0,21864.0,59546.0,78130,New Braunfels,TX,253000.0,303749.5,0.0
33.6,-84.5,126400.0,43498.0,25422.0,67602.0,30349,Riverdale,GA,179875.0,374495.0,120000.0
26.2,-98.4,78200.0,37735.0,22742.0,75221.0,78572,Mission,TX,200000.0,0.0,0.0
38.0,-121.9,213300.0,55255.0,25761.0,84641.0,94565,Pittsburg,CA,425000.0,0.0,425000.0
31.85,-106.54,171800.0,59174.0,29235.0,77161.0,79912,El Paso,TX,228700.0,249835.0,0.0
34.11,-118.37,873100.0,52641.0,28534.0,48581.0,90046,Los Angeles,CA,1749999.0,1999000.0,0.0
30.5,-97.82,198900.0,81928.0,23069.0,65099.0,78613,Cedar Park,TX,317817.5,493990.0,234900.0
32.65,-97.02,134300.0,66744.0,28598.0,88996.0,75052,Grand Prairie,TX,238250.0,355000.0,170000.0
38.92,-77.04,539400.0,88684.0,26825.0,47992.0,20009,Washington,DC,567000.0,799555.0,257400.0
36.6,-87.4,121700.0,46477.0,24404.0,66916.0,37042,Clarksville,TN,176900.0,239900.0,100000.0
40.84,-73.85,271300.0,45864.0,29855.0,75784.0,10462,New York,NY,185000.0,0.0,175000.0
29.96,-95.74,173100.0,89258.0,15497.0,50539.0,77433,Cypress,TX,325990.0,389450.0,0.0
35.5,-97.8,143200.0,65845.0,21670.0,57492.0,73099,Yukon,OK,209965.0,247873.5,0.0
29.98,-95.66,187000.0,96695.0,24208.0,72264.0,77429,Cypress,TX,305000.0,379925.0,0.0
29.56,-95.64,275400.0,123935.0,24076.0,74514.0,77479,Sugar Land,TX,435990.0,475000.0,0.0
40.7,-73.94,533400.0,28559.0,28025.0,81677.0,11206,New York,NY,697500.0,0.0,0.0
38.8,-90.63,170800.0,74161.0,26605.0,70828.0,63376,Saint Peters,MO,216900.0,309999.0,0.0
41.95,-87.65,308400.0,66697.0,27476.0,48281.0,60613,Chicago,IL,315000.0,510000.0,149995.0
33.92,-84.07,147200.0,51827.0,25780.0,79701.0,30044,Lawrenceville,GA,224900.0,365000.0,145000.0
40.62,-73.97,598000.0,42170.0,30859.0,86408.0,11230,New York,NY,615000.0,824000.0,0.0
40.89,-73.91,289700.0,54258.0,28408.0,67970.0,10463,New York,NY,342250.0,812450.0,224900.0
34.01,-84.01,171000.0,67260.0,25997.0,80241.0,30043,Lawrenceville,GA,262900.0,372400.0,0.0
41.78,-87.7,159700.0,40650.0,30114.0,113916.0,60629,Chicago,IL,189450.0,0.0,129450.0
41.97,-87.7,305500.0,56597.0,29214.0,78651.0,60625,Chicago,IL,325000.0,499000.0,145000.0
40.75,-74.03,550700.0,107366.0,25041.0,50005.0,07030,Hoboken,NJ,789499.5,904997.0,0.0
35.05,-80.81,274700.0,91989.0,23801.0,59664.0,28277,Charlotte,NC,364950.0,424450.0,0.0
33.0,-96.84,246400.0,46828.0,26050.0,49004.0,75287,Dallas,TX,330000.0,531250.0,0.0
33.63,-112.01,156100.0,48461.0,25991.0,65485.0,85032,Phoenix,AZ,273900.0,412500.0,159900.0
30.24,-97.75,347500.0,50930.0,21335.0,42117.0,78704,Austin,TX,599000.0,699000.0,218000.0
25.94,-80.14,217000.0,45627.0,19695.0,40053.0,33160,Sunny Isles Beach,FL,728000.0,1150000.0,169900.0
29.75,-95.63,208900.0,59958.0,24376.0,52151.0,77077,Houston,TX,349900.0,399000.0,0.0
29.41,-98.72,114700.0,59785.0,17691.0,56511.0,78245,San Antonio,TX,229500.0,311900.0,137000.0
39.39,-76.53,213500.0,58332.0,29982.0,69752.0,21234,Parkville,MD,215000.0,0.0,159000.0
36.8,-76.18,257100.0,71192.0,25956.0,72359.0,23464,Virginia Beach,VA,256049.5,360000.0,149900.0
33.98,-84.15,178600.0,49883.0,24244.0,62265.0,30096,Duluth,GA,263950.0,400000.0,145000.0
26.0,-97.3,67500.0,26684.0,25763.0,93818.0,78521,Brownsville,TX,125450.0,195000.0,0.0
32.91,-96.74,178400.0,35944.0,23672.0,55406.0,75243,Dallas,TX,269450.0,445000.0,94950.0
40.6,-74.01,598800.0,43398.0,32212.0,88630.0,11214,New York,NY,679000.0,725000.0,0.0
47.68,-122.12,465200.0,99192.0,24008.0,58442.0,98052,Redmond,WA,782500.0,990000.0,0.0
37.77,-122.28,607000.0,69076.0,25025.0,60212.0,94501,Alameda,CA,855000.0,0.0,0.0
40.07,-74.21,280100.0,40240.0,24283.0,92843.0,08701,Lakewood,NJ,299900.0,659000.0,195000.0
40.69,-73.93,543800.0,39178.0,28391.0,78895.0,11221,New York,NY,729000.0,850000.0,0.0
41.9,-87.64,396600.0,72636.0,23055.0,37726.0,60610,Chicago,IL,499999.5,649000.0,0.0
40.67,-73.9,403800.0,32945.0,31118.0,93386.0,11207,New York,NY,490000.0,0.0,0.0
40.6,-73.94,524100.0,51725.0,30601.0,80018.0,11229,New York,NY,662875.0,819000.0,227000.0
30.04,-95.53,190200.0,97692.0,24124.0,70544.0,77379,Tomball,TX,299990.0,359990.0,145000.0
29.9,-98.0,125000.0,33827.0,22874.0,63836.0,78666,San Marcos,TX,274900.0,495000.0,205000.0
40.77,-73.99,808600.0,84424.0,25905.0,42870.0,10019,New York,NY,1650000.0,1795000.0,0.0
34.07,-84.1,272400.0,99931.0,20715.0,64614.0,30024,Suwanee,GA,395000.0,444250.0,0.0
37.75,-122.42,768200.0,82111.0,27128.0,69333.0,94110,San Francisco,CA,1299000.0,1699800.0,0.0
41.74,-87.61,152700.0,34977.0,26722.0,63825.0,60619,Chicago,IL,123582.0,0.0,84000.0
25.78,-80.15,305300.0,46612.0,23510.0,38613.0,33139,Miami Beach,FL,435000.0,905000.0,184900.0
26.71,-80.2,202700.0,63385.0,24104.0,65245.0,33411,Royal Palm Beach,FL,319900.0,459450.0,132000.0
41.48,-81.8,129500.0,43190.0,25333.0,52244.0,44107,Lakewood,OH,187887.5,292000.0,59450.0
30.21,-97.8,170200.0,50672.0,24081.0,55614.0,78745,Austin,TX,328000.0,450000.0,0.0
33.02,-96.99,149100.0,56555.0,24262.0,60982.0,75067,Lewisville,TX,280000.0,390047.0,0.0
25.98,-80.28,157900.0,51822.0,21536.0,59039.0,33025,Miramar,FL,240000.0,469995.0,135000.0
42.21,-83.62,153700.0,48772.0,24488.0,61132.0,48197,Ypsilanti,MI,235000.0,0.0,185450.0
42.24,-71.01,333100.0,58669.0,25014.0,55055.0,02169,Quincy,MA,444900.0,0.0,315000.0
38.85,-94.78,200400.0,82333.0,26031.0,74411.0,66062,Olathe,KS,315000.0,380950.0,0.0
36.84,-76.15,210900.0,56617.0,24396.0,61973.0,23462,Virginia Beach,VA,219000.0,357450.0,149777.0
33.95,-118.29,269400.0,29870.0,25144.0,89779.0,90044,Los Angeles,CA,435000.0,0.0,425000.0
41.4,-82.1,106000.0,43449.0,26489.0,64263.0,44035,Elyria,OH,104900.0,0.0,67800.0
38.67,-121.15,385500.0,98547.0,24935.0,72180.0,95630,Folsom,CA,579945.0,646990.0,0.0
33.86,-118.18,282000.0,44070.0,26056.0,93524.0,90805,Long Beach,CA,457000.0,0.0,449900.0
33.91,-118.08,315500.0,60770.0,27130.0,105549.0,90650,Norwalk,CA,489450.0,0.0,475000.0
40.61,-73.89,488200.0,68431.0,31213.0,87757.0,11234,New York,NY,650000.0,775000.0,202500.0
33.75,-117.99,448400.0,52409.0,26223.0,89747.0,92683,Westminster,CA,679950.0,0.0,0.0
32.22,-110.82,151900.0,42204.0,24849.0,54439.0,85710,Tucson,AZ,180950.0,0.0,144450.0
35.4,-80.7,178400.0,59257.0,20425.0,55435.0,28027,Concord,NC,301450.0,359912.0,124900.0
40.75,-73.83,507500.0,41884.0,28837.0,85871.0,11355,New York,NY,662010.0,767444.0,0.0
41.91,-87.61,464400.0,85642.0,18975.0,28718.0,60611,Chicago,IL,565000.0,765000.0,0.0
40.6,-74.15,437500.0,77242.0,30709.0,85510.0,10314,New York,NY,549999.0,692450.0,0.0
36.3,-86.6,209600.0,63464.0,22865.0,59256.0,37075,Hendersonville,TN,342445.0,431445.0,170000.0
41.73,-87.55,139300.0,38845.0,28894.0,84155.0,60617,Chicago,IL,109900.0,0.0,89000.0
34.08,-118.26,551500.0,44327.0,24956.0,67869.0,90026,Los Angeles,CA,992500.0,1199000.0,0.0
33.6,-84.2,132000.0,53818.0,24239.0,66140.0,30281,Stockbridge,GA,195450.0,349900.0,132850.0
30.27,-81.75,115000.0,42365.0,23377.0,59080.0,32210,Jacksonville,FL,143000.0,430000.0,124900.0
33.32,-111.82,163300.0,56414.0,25025.0,69810.0,85225,Chandler,AZ,266000.0,427450.0,168250.0
40.67,-73.98,913200.0,95654.0,28077.0,63488.0,11215,New York,NY,1100000.0,1180000.0,0.0
38.5,-122.3,442500.0,72286.0,24275.0,66830.0,94558,Napa,CA,795000.0,0.0,491750.0
40.71,-73.95,655500.0,46848.0,33489.0,90117.0,11211,New York,NY,1100200.0,1150000.0,0.0
39.5,-104.8,310200.0,100739.0,19555.0,55075.0,80134,Parker,CO,478000.0,610900.0,280000.0
32.63,-117.05,340300.0,54056.0,26063.0,75802.0,91910,Chula Vista,CA,548900.0,0.0,400000.0
35.19,-106.68,209300.0,65277.0,23251.0,61623.0,87114,Albuquerque,NM,233900.0,315000.0,149900.0
41.68,-72.94,204400.0,57632.0,25305.0,60448.0,06010,Bristol,CT,189900.0,335000.0,135450.0
29.52,-98.61,141300.0,48281.0,22815.0,51111.0,78240,San Antonio,TX,209950.0,319945.0,0.0
40.04,-76.31,148700.0,44752.0,24818.0,61973.0,17603,Lancaster,PA,214000.0,338375.0,129122.0
33.67,-112.19,198900.0,68796.0,24405.0,63876.0,85308,Glendale,AZ,294949.5,425000.0,195423.5
36.21,-115.21,110700.0,41659.0,24466.0,70123.0,89108,Las Vegas,NV,229000.0,0.0,155000.0
36.8,-119.88,177500.0,55500.0,23493.0,76448.0,93722,Fresno,CA,260000.0,369731.5,0.0
33.44,-111.93,163700.0,30582.0,22071.0,57348.0,85281,Tempe,AZ,279949.5,426350.0,179000.0
35.14,-106.52,245800.0,62844.0,26205.0,56490.0,87111,Albuquerque,NM,287000.0,399000.0,0.0
42.23,-83.27,77800.0,41933.0,24370.0,63131.0,48180,Taylor,MI,102445.0,0.0,72964.5
18.2,-66.1,0.0,0.0,33724.0,89374.0,00725,Caguas,NM,110000.0,0.0,0.0
38.28,-122.02,211100.0,55413.0,22620.0,69277.0,94533,Fairfield,CA,373450.0,567500.0,339250.0
40.1,-82.9,174700.0,68306.0,22754.0,55991.0,43081,Westerville,OH,259950.0,322900.0,0.0
40.1,-82.4,121200.0,41981.0,24380.0,59605.0,43055,Newark,OH,139900.0,359900.0,89777.0
40.3,-79.5,152400.0,52719.0,24887.0,59483.0,15601,Greensburg,PA,172700.0,285625.0,72450.0
38.62,-121.33,301000.0,54322.0,25311.0,59418.0,95608,Carmichael,CA,435000.0,649950.0,299950.0
41.69,-81.33,166600.0,64446.0,24555.0,60211.0,44060,Mentor,OH,174900.0,279900.0,89450.0
45.55,-122.81,405300.0,100063.0,21741.0,58217.0,97229,Portland,OR,569891.5,683950.0,262000.0
40.68,-73.96,656800.0,65315.0,22648.0,49262.0,11238,New York,NY,1185000.0,1199500.0,0.0
32.6,-114.7,118900.0,39102.0,24879.0,74904.0,85364,Yuma,AZ,200000.0,259900.0,115000.0
40.7,-73.88,495800.0,50799.0,34843.0,98592.0,11385,New York,NY,697000.0,739000.0,0.0
39.66,-104.77,192800.0,67857.0,24791.0,69588.0,80013,Aurora,CO,345000.0,0.0,299950.0
29.53,-95.52,205500.0,104547.0,18482.0,56274.0,77459,Missouri City,TX,339900.0,384800.0,0.0
26.03,-80.24,160900.0,50417.0,22276.0,63916.0,33024,Pembroke Pines,FL,290000.0,558635.0,163500.0
33.95,-117.73,476200.0,96497.0,22940.0,74796.0,91709,Chino Hills,CA,699994.0,748800.0,0.0
39.9,-83.1,150500.0,60863.0,22333.0,58424.0,43123,Grove City,OH,219900.0,302300.0,119900.0
39.09,-77.06,311700.0,72354.0,24081.0,64696.0,20906,Silver Spring,MD,359900.0,0.0,218700.0
34.0,-118.43,727800.0,66744.0,23985.0,55277.0,90066,Los Angeles,CA,1399000.0,1525000.0,0.0
26.2,-98.2,71100.0,32054.0,19814.0,70840.0,78577,Pharr,TX,155950.0,0.0,0.0
47.84,-122.2,350000.0,88283.0,19448.0,51136.0,98012,Bothell,WA,582450.0,749995.0,325000.0
32.5,-97.3,136800.0,69676.0,21181.0,59744.0,76028,Burleson,TX,259949.5,384950.0,165450.0
42.4,-76.5,209800.0,46331.0,24786.0,63886.0,14850,Ithaca,NY,299000.0,419000.0,0.0
28.5,-81.6,207600.0,55875.0,16075.0,46083.0,34787,Winter Garden,FL,388990.0,421990.0,0.0
26.5,-81.9,183200.0,52268.0,18920.0,38251.0,33908,Fort Myers,FL,286250.0,499999.0,154900.0
42.43,-71.05,325800.0,53798.0,23701.0,59503.0,02148,Malden,MA,399900.0,0.0,0.0
37.17,-93.33,117200.0,37009.0,23193.0,54952.0,65807,Springfield,MO,139000.0,245000.0,99900.0
28.12,-82.35,249000.0,72131.0,20585.0,55034.0,33647,Tampa,FL,314690.0,374900.0,122200.0
32.57,-97.13,179600.0,92052.0,19956.0,61361.0,76063,Mansfield,TX,324950.0,399500.0,0.0
41.1,-81.9,198400.0,71378.0,23331.0,62039.0,44256,Medina,OH,259900.0,299900.0,0.0
31.8,-106.1,127800.0,52119.0,14131.0,53520.0,79938,El Paso,TX,171200.0,190000.0,0.0
41.74,-87.66,138800.0,31753.0,26058.0,72216.0,60620,Chicago,IL,127700.0,0.0,90250.0
38.47,-121.44,144100.0,37931.0,22470.0,73985.0,95823,Sacramento,CA,279000.0,0.0,275000.0
40.87,-73.9,171200.0,33776.0,24909.0,76103.0,10468,New York,NY,204500.0,0.0,0.0
33.53,-117.71,662200.0,99101.0,24425.0,63297.0,92677,Laguna Niguel,CA,839000.0,1281000.0,420000.0
34.2,-84.2,236800.0,81378.0,18751.0,54653.0,30040,Cumming,GA,385450.0,420900.0,0.0
33.07,-96.9,167500.0,79251.0,16999.0,47852.0,75056,The Colony,TX,420311.0,463990.0,0.0
25.99,-80.15,133200.0,33157.0,19456.0,39341.0,33009,Hallandale,FL,274499.0,541950.0,164900.0
39.4,-84.5,178400.0,60757.0,23732.0,69677.0,45011,Hamilton,OH,264900.0,355000.0,74700.0
41.06,-73.54,437300.0,63582.0,23502.0,63406.0,06902,Stamford,CT,549950.0,939900.0,199250.0
36.12,-79.89,201600.0,60097.0,23406.0,52388.0,27410,Greensboro,NC,239000.0,279000.0,0.0
36.12,-115.09,110200.0,40836.0,25373.0,64096.0,89121,Las Vegas,NV,240000.0,449999.0,179000.0
40.78,-73.95,1000001.0,104638.0,25158.0,45141.0,10028,New York,NY,1795000.0,2172500.0,0.0
34.4,-117.3,145200.0,42421.0,23542.0,78715.0,92345,Hesperia,CA,275000.0,0.0,245700.0
33.82,-117.98,362600.0,53293.0,24363.0,85914.0,92804,Anaheim,CA,589450.0,0.0,399000.0
40.72,-74.05,474200.0,98952.0,17992.0,36352.0,07302,Jersey City,NJ,799000.0,925000.0,0.0
38.9,-92.4,197800.0,56313.0,22351.0,53307.0,65203,Columbia,MO,269900.0,335000.0,88000.0
36.0,-78.6,258300.0,81287.0,18602.0,53078.0,27587,Wake Forest,NC,359900.0,449999.0,175000.0
40.5,-87.0,165300.0,36101.0,22671.0,66972.0,47906,West Lafayette,IN,225500.0,284900.0,0.0
39.99,-74.16,294000.0,76202.0,23580.0,63678.0,08753,Toms River,NJ,286450.0,779000.0,235000.0
34.15,-117.46,283700.0,87116.0,22223.0,88419.0,92336,Fontana,CA,468944.0,500000.0,0.0
32.91,-117.14,378400.0,81505.0,22978.0,73343.0,92126,San Diego,CA,590000.0,0.0,369000.0
41.95,-87.81,239200.0,55767.0,25712.0,74298.0,60634,Chicago,IL,288500.0,359950.0,0.0
34.12,-84.45,171200.0,69186.0,19627.0,52380.0,30188,Woodstock,GA,350000.0,424550.0,0.0
41.4,-87.3,187000.0,69071.0,21983.0,60619.0,46307,Crown Point,IN,249900.0,394500.0,149850.0
32.83,-96.68,105300.0,36274.0,23546.0,66551.0,75228,Dallas,TX,245000.0,365500.0,168700.0
36.0,-79.8,124100.0,37548.0,22367.0,56458.0,27406,Greensboro,NC,129945.0,258885.0,0.0
47.67,-122.34,478200.0,75763.0,22724.0,45911.0,98103,Seattle,WA,725000.0,867249.5,0.0
29.74,-95.74,191900.0,100957.0,24417.0,71889.0,77450,Cinco Ranch,TX,285000.0,369900.0,0.0
46.5,-118.7,162600.0,56098.0,20738.0,68191.0,99301,Pasco,WA,299900.0,392400.0,207500.0
30.5,-96.3,189500.0,70400.0,18151.0,48938.0,77845,College Station,TX,277450.0,381600.0,0.0
38.95,-77.02,376900.0,54488.0,23035.0,58536.0,20011,Washington,DC,619890.0,724500.0,0.0
34.97,-81.08,159700.0,56825.0,21470.0,53781.0,29732,Rock Hill,SC,241400.0,379900.0,119900.0
34.05,-118.34,617300.0,42043.0,23344.0,64458.0,90019,Los Angeles,CA,1149000.0,1277450.0,0.0
42.05,-87.89,217900.0,59533.0,23605.0,59690.0,60016,Des Plaines,IL,249950.0,350000.0,127250.0
39.7,-82.6,134600.0,43234.0,23250.0,59570.0,43130,Lancaster,OH,159900.0,0.0,100000.0
32.93,-97.28,174300.0,93705.0,19194.0,60388.0,76244,Fort Worth,TX,275000.0,374500.0,0.0
35.07,-79.02,127000.0,49011.0,21844.0,54520.0,28314,Fayetteville,NC,119000.0,218200.0,62750.0
35.7,-78.5,144900.0,43520.0,22037.0,65648.0,27610,Raleigh,NC,203000.0,452450.0,168000.0
29.91,-95.64,167000.0,89393.0,22922.0,66502.0,77095,Houston,TX,235000.0,319950.0,0.0
35.1,-106.8,189900.0,62544.0,22480.0,58023.0,87120,Albuquerque,NM,228500.0,333990.0,152500.0
33.9,-117.45,222500.0,56373.0,23413.0,84519.0,92503,Riverside,CA,439000.0,595000.0,0.0
40.68,-73.92,551900.0,34492.0,25693.0,67053.0,11233,New York,NY,605000.0,0.0,0.0
32.6,-117.04,294900.0,48111.0,24622.0,82999.0,91911,Chula Vista,CA,480000.0,0.0,410000.0
39.6,-77.7,171200.0,42979.0,23317.0,61859.0,21740,Hagerstown,MD,169900.0,0.0,0.0
37.57,-121.99,548600.0,87001.0,23868.0,68790.0,94536,Fremont,CA,925000.0,0.0,575000.0
33.79,-84.44,174800.0,39421.0,19812.0,49736.0,30318,Atlanta,GA,330000.0,509950.0,0.0
37.8,-84.3,152500.0,41654.0,21736.0,55803.0,40475,Richmond,KY,182250.0,0.0,0.0
40.67,-74.11,332700.0,55608.0,25240.0,63031.0,07002,Bayonne,NJ,399000.0,0.0,269000.0
33.94,-118.19,292100.0,42776.0,23278.0,94396.0,90280,South Gate,CA,443500.0,0.0,434900.0
35.4,-80.9,246500.0,83519.0,19405.0,52133.0,28078,Huntersville,NC,336950.0,379900.0,0.0
36.76,-76.2,248000.0,69475.0,20719.0,51797.0,23320,Chesapeake,VA,299900.0,424205.0,154900.0
40.03,-82.87,168600.0,65785.0,21275.0,51161.0,43230,Gahanna,OH,210000.0,331400.0,0.0
38.62,-77.27,247200.0,79198.0,18901.0,57598.0,22191,Woodbridge,VA,336950.0,0.0,284950.0
36.14,-115.28,225400.0,54556.0,23699.0,55416.0,89117,Las Vegas,NV,372000.0,545000.0,160000.0
40.06,-75.08,179300.0,44123.0,24161.0,63090.0,19111,Philadelphia,PA,195000.0,0.0,139900.0
26.37,-81.73,211300.0,51818.0,16197.0,37315.0,34135,Bonita Springs,FL,305149.0,474950.0,161450.0
39.68,-86.13,116500.0,37380.0,23136.0,57086.0,46227,Indianapolis,IN,144900.0,0.0,84900.0
33.5,-117.0,322300.0,88355.0,22466.0,72492.0,92592,Temecula,CA,499894.0,580000.0,0.0
40.64,-73.9,478700.0,61061.0,31778.0,93877.0,11236,New York,NY,499000.0,0.0,0.0
40.81,-73.96,716100.0,37872.0,22839.0,59707.0,10027,New York,NY,965000.0,0.0,0.0
34.1,-117.58,283700.0,62856.0,22811.0,66925.0,91730,Rancho Cucamonga,CA,439000.0,512500.0,0.0
33.87,-84.5,207200.0,52249.0,23534.0,49905.0,30080,Smyrna,GA,375000.0,464900.0,152000.0
36.06,-95.81,149800.0,63005.0,21115.0,57526.0,74012,Broken Arrow,OK,184945.0,245000.0,0.0
39.43,-76.8,279600.0,76645.0,21805.0,53778.0,21117,Owings Mills,MD,262000.0,489900.0,164900.0
38.78,-121.37,335800.0,86595.0,18890.0,51870.0,95747,Roseville,CA,494250.0,589000.0,0.0
41.69,-87.62,132100.0,37472.0,24491.0,72202.0,60628,Chicago,IL,85000.0,0.0,74900.0
30.22,-81.74,111700.0,48290.0,21674.0,57369.0,32244,Jacksonville,FL,159450.0,0.0,124400.0
33.98,-118.17,271300.0,37267.0,24104.0,101279.0,90201,Bell,CA,449444.0,0.0,441999.0
32.8,-117.24,717300.0,64478.0,23349.0,45787.0,92109,San Diego,CA,1095000.0,1275000.0,0.0
33.8,-83.9,156400.0,63338.0,19938.0,59451.0,30052,Loganville,GA,265000.0,355345.0,149900.0
34.2,-84.1,285600.0,92733.0,18207.0,52749.0,30041,Cumming,GA,409000.0,465000.0,0.0
32.72,-117.18,448700.0,52550.0,20599.0,37095.0,92101,San Diego,CA,649000.0,1154900.0,405000.0
28.5,-81.29,90700.0,32903.0,21111.0,53029.0,32822,Orlando,FL,132247.5,0.0,112450.0
28.5,-81.8,173700.0,60312.0,19255.0,51847.0,34711,Clermont,FL,299900.0,359945.0,0.0
30.5,-81.7,142900.0,46863.0,19602.0,53473.0,32218,Jacksonville,FL,213990.0,316330.0,119470.0
40.79,-74.01,331400.0,47299.0,23325.0,60884.0,07093,West New York,NJ,495000.0,874000.0,258298.0
34.08,-118.31,776300.0,37976.0,22547.0,62180.0,90004,Los Angeles,CA,1200000.0,0.0,0.0
25.66,-80.41,214200.0,63834.0,23111.0,67137.0,33186,The Crossings,FL,311900.0,449000.0,175000.0
30.18,-81.52,247900.0,54160.0,18327.0,38483.0,32256,Jacksonville,FL,207250.0,398900.0,129888.0
34.0,-84.47,250300.0,86352.0,22958.0,62136.0,30062,Marietta,GA,379950.0,432950.0,0.0
30.5,-97.9,156900.0,71885.0,14839.0,44295.0,78641,Leander,TX,335000.0,486990.0,229990.0
33.89,-118.13,337100.0,49637.0,23650.0,76615.0,90706,Bellflower,CA,524000.0,0.0,479950.0
42.01,-87.67,210100.0,38734.0,22545.0,50139.0,60626,Chicago,IL,188000.0,0.0,136000.0
42.3,-83.9,251600.0,75559.0,23208.0,53057.0,48103,Ann Arbor,MI,416950.0,526497.5,0.0
33.72,-84.56,154100.0,41777.0,21742.0,54094.0,30331,Atlanta,GA,169500.0,363832.0,120000.0
42.42,-71.11,387000.0,73567.0,22798.0,57964.0,02155,Medford,MA,613950.0,699000.0,0.0
32.7,-96.68,73200.0,34480.0,21625.0,80324.0,75217,Dallas,TX,145900.0,0.0,139900.0
35.7,-87.0,132000.0,41665.0,21443.0,54469.0,38401,Columbia,TN,254900.0,425500.0,164500.0
34.3,-118.4,322400.0,59329.0,23543.0,91725.0,91342,Los Angeles,CA,519450.0,0.0,470000.0
34.09,-117.46,174000.0,42943.0,22772.0,95397.0,92335,Fontana,CA,350000.0,0.0,0.0
35.89,-86.32,155600.0,36934.0,20910.0,52070.0,37130,Murfreesboro,TN,254990.0,424900.0,159900.0
37.24,-121.84,502200.0,87180.0,21123.0,62228.0,95123,San Jose,CA,827880.0,0.0,795880.0
41.77,-87.56,180300.0,28573.0,21715.0,46650.0,60649,Chicago,IL,99950.0,0.0,71494.0
40.75,-73.88,265500.0,48683.0,23906.0,66636.0,11372,New York,NY,399000.0,779500.0,289000.0
40.02,-83.18,178200.0,76813.0,20059.0,54017.0,43026,Hilliard,OH,269900.0,352990.0,120900.0
40.4,-104.8,184900.0,58959.0,20456.0,52861.0,80634,Greeley,CO,327474.0,439900.0,246500.0
35.7,-77.4,101500.0,31265.0,21546.0,52914.0,27834,Greenville,NC,147500.0,0.0,0.0
35.98,-115.1,303900.0,75555.0,19491.0,47214.0,89052,Henderson,NV,474700.0,535000.0,0.0
32.84,-116.88,299000.0,49521.0,22649.0,65068.0,92021,El Cajon,CA,499000.0,0.0,400000.0
34.0,-81.3,201000.0,76124.0,18760.0,49566.0,29072,Lexington,SC,253920.0,279900.0,0.0
34.27,-118.79,442800.0,91686.0,23533.0,72508.0,93065,Simi Valley,CA,599999.5,889900.0,485000.0
36.8,-76.0,289400.0,64721.0,23044.0,60283.0,23454,Virginia Beach,VA,325000.0,499900.0,155950.0
38.64,-77.35,258000.0,90378.0,22186.0,73047.0,22193,Woodbridge,VA,331000.0,0.0,290000.0
32.83,-96.77,268000.0,52192.0,20176.0,36248.0,75206,Dallas,TX,449000.0,499900.0,0.0
41.0,-83.7,133400.0,47592.0,22590.0,54979.0,45840,Findlay,OH,189900.0,289900.0,87500.0
41.39,-81.79,132000.0,48212.0,22836.0,50639.0,44130,Parma Heights,OH,140000.0,0.0,80000.0
42.33,-83.37,94500.0,42810.0,21883.0,47618.0,48185,Westland,MI,149900.0,0.0,79900.0
33.16,-96.77,212800.0,102913.0,16064.0,47553.0,75035,Frisco,TX,474995.0,499990.0,0.0
38.91,-77.02,495300.0,78848.0,16500.0,38551.0,20001,Washington,DC,699900.0,799000.0,0.0
26.25,-80.21,114100.0,43756.0,21777.0,51019.0,33063,Margate,FL,196000.0,0.0,108555.0
35.5,-77.3,165800.0,44554.0,22704.0,55781.0,27858,Greenville,NC,197700.0,0.0,0.0
33.65,-117.92,548500.0,58167.0,21761.0,61510.0,92627,Costa Mesa,CA,847000.0,1199900.0,0.0
26.28,-80.12,117900.0,42407.0,20049.0,52969.0,33064,Pompano Beach,FL,249500.0,1187000.0,136500.0
26.13,-80.16,119300.0,30738.0,21875.0,63786.0,33311,Fort Lauderdale,FL,199900.0,0.0,150000.0
29.3,-81.2,169500.0,48544.0,21178.0,47552.0,32174,Ormond Beach,FL,285000.0,363000.0,0.0
41.9,-70.6,329300.0,76565.0,21269.0,56271.0,02360,Plymouth,MA,429000.0,721950.0,285000.0
34.02,-84.25,316800.0,99597.0,23340.0,64359.0,30022,Johns Creek,GA,499450.0,577000.0,0.0
37.06,-76.41,205000.0,55415.0,20952.0,49825.0,23666,Hampton,VA,199900.0,384900.0,139000.0
39.11,-77.25,525300.0,116347.0,22268.0,62446.0,20878,Gaithersburg,MD,589950.0,749900.0,0.0
35.9,-90.6,117500.0,34819.0,20827.0,53767.0,72401,Jonesboro,AR,154200.0,229900.0,50000.0
32.27,-111.0,78200.0,23769.0,24346.0,57521.0,85705,Tucson,AZ,165000.0,0.0,129900.0
35.0,-106.9,129800.0,42100.0,22483.0,76721.0,87121,Albuquerque,NM,159250.0,0.0,144900.0
38.89,-76.94,223100.0,34832.0,22076.0,54358.0,20019,Washington,DC,339999.0,0.0,268499.5
34.01,-118.26,269300.0,30171.0,22168.0,103892.0,90011,Los Angeles,CA,384500.0,0.0,378900.0
25.98,-80.34,220600.0,61464.0,21028.0,57663.0,33027,Miramar,FL,309900.0,475000.0,136750.0
40.6,-73.97,613000.0,41328.0,28421.0,78731.0,11223,New York,NY,775000.0,865000.0,0.0
27.25,-80.38,127200.0,51167.0,20387.0,61494.0,34953,Port Saint Lucie,FL,239900.0,321000.0,164700.0
40.3,-74.4,324300.0,67676.0,18891.0,45620.0,08831,Monroe,NJ,379900.0,699900.0,225000.0
46.85,-96.82,142500.0,41479.0,22693.0,47302.0,58103,Fargo,ND,189000.0,332100.0,138500.0
40.0,-82.0,103400.0,37061.0,23019.0,55643.0,43701,Zanesville,OH,139900.0,224450.0,0.0
34.13,-118.29,793200.0,47993.0,21929.0,45151.0,90027,Los Angeles,CA,1649500.0,1798800.0,0.0
34.05,-118.44,669100.0,73478.0,21228.0,42147.0,90025,Los Angeles,CA,988000.0,1150000.0,0.0
41.71,-81.2,159400.0,55681.0,21717.0,56491.0,44077,Painesville,OH,172250.0,304000.0,66000.0
40.77,-73.96,1000001.0,107907.0,24734.0,43631.0,10021,New York,NY,1699000.0,2157500.0,0.0
34.01,-117.7,331700.0,70768.0,21952.0,80358.0,91710,Chino,CA,525000.0,568400.0,0.0
39.05,-77.48,444000.0,122115.0,19046.0,54086.0,20147,Ashburn,VA,514900.0,672990.0,0.0
37.64,-122.06,305100.0,60448.0,21872.0,73026.0,94544,Hayward,CA,634500.0,0.0,592450.0
29.74,-95.64,124000.0,50294.0,20374.0,49900.0,77082,Houston,TX,235000.0,557500.0,140000.0
41.84,-87.62,288100.0,44258.0,21421.0,48433.0,60616,Chicago,IL,349900.0,425000.0,0.0
40.02,-75.09,92100.0,28726.0,22487.0,66691.0,19124,Philadelphia,PA,99900.0,0.0,95000.0
39.96,-83.14,117800.0,39894.0,20705.0,50737.0,43228,Columbus,OH,149900.0,0.0,100000.0
44.08,-92.51,167000.0,65157.0,20803.0,51917.0,55901,Rochester,MN,229900.0,339900.0,129900.0
44.0,-123.2,178600.0,38414.0,20945.0,50342.0,97402,Eugene,OR,257700.0,0.0,219500.0
26.15,-80.23,87500.0,34431.0,20354.0,56039.0,33313,Lauderhill,FL,86900.0,0.0,75000.0
34.14,-84.29,323900.0,95922.0,19166.0,53033.0,30004,Milton,GA,550500.0,665000.0,0.0
37.35,-121.98,619600.0,100504.0,20230.0,54327.0,95051,Santa Clara,CA,1299000.0,0.0,0.0
33.9,-84.7,161800.0,71164.0,19921.0,60347.0,30127,Powder Springs,GA,243388.0,424900.0,140000.0
33.4,-86.7,325200.0,83616.0,19942.0,49545.0,35242,Hoover,AL,465000.0,0.0,0.0
34.9,-81.0,121400.0,37152.0,20280.0,52365.0,29730,Rock Hill,SC,191150.0,358450.0,80850.0
32.82,-96.63,105800.0,45999.0,21997.0,58730.0,75150,Mesquite,TX,189000.0,0.0,174000.0
36.85,-76.1,239100.0,61522.0,22599.0,59321.0,23452,Virginia Beach,VA,270000.0,489500.0,155000.0
33.74,-118.27,440700.0,50210.0,22044.0,59662.0,90731,Los Angeles,CA,635000.0,0.0,0.0
30.61,-96.32,152000.0,19011.0,21049.0,56171.0,77840,College Station,TX,199900.0,379900.0,0.0
34.2,-118.54,332900.0,51266.0,22855.0,74363.0,91335,Los Angeles,CA,569450.0,0.0,425000.0
36.75,-119.68,185300.0,45760.0,21680.0,71820.0,93727,Fresno,CA,300000.0,353785.0,0.0
34.5,-93.1,137100.0,39713.0,19126.0,43436.0,71913,Hot Springs,AR,219900.0,349900.0,69900.0
39.62,-104.78,241500.0,80599.0,21240.0,62432.0,80015,Aurora,CO,411970.0,549000.0,289900.0
32.82,-79.86,349300.0,68721.0,19006.0,43649.0,29464,Mount Pleasant,SC,569700.0,696500.0,0.0
35.89,-78.92,200000.0,66254.0,20513.0,46660.0,27713,Durham,NC,263250.0,400000.0,156750.0
40.52,-105.02,269000.0,63754.0,20324.0,48419.0,80525,Fort Collins,CO,395000.0,520000.0,282500.0
39.95,-82.77,137900.0,54176.0,20806.0,51836.0,43068,Reynoldsburg,OH,168500.0,0.0,124900.0
35.8,-86.49,175800.0,63337.0,14749.0,38966.0,37128,Murfreesboro,TN,279900.0,384900.0,169900.0
30.35,-81.5,185100.0,61723.0,20047.0,52485.0,32225,Jacksonville,FL,261000.0,397000.0,132500.0
38.4,-121.9,252400.0,73583.0,21369.0,65096.0,95687,Vacaville,CA,422450.0,600950.0,319900.0
36.1,-80.1,165200.0,56602.0,20713.0,51136.0,27284,Kernersville,NC,239000.0,279000.0,0.0
38.55,-90.32,147400.0,52877.0,22022.0,49308.0,63123,Affton,MO,155000.0,316450.0,95000.0
38.2,-84.9,139100.0,46063.0,20979.0,49566.0,40601,Frankfort,KY,161200.0,255000.0,79900.0
33.49,-111.92,227300.0,49111.0,17860.0,34390.0,85251,Scottsdale,AZ,379000.0,514900.0,179950.0
41.9,-87.69,412000.0,68923.0,24124.0,52548.0,60622,Chicago,IL,526250.0,574373.5,0.0
37.0,-86.5,110700.0,35462.0,20122.0,55648.0,42101,Bowling Green,KY,178700.0,0.0,0.0
34.7,-118.5,216000.0,70577.0,20964.0,70918.0,93536,Lancaster,CA,360000.0,0.0,358990.0
26.22,-98.24,91200.0,31214.0,20235.0,61219.0,78501,McAllen,TX,188500.0,0.0,0.0
34.5,-118.1,137200.0,38316.0,20864.0,74929.0,93550,Palmdale,CA,279000.0,0.0,275000.0
37.56,-77.37,153300.0,36855.0,19259.0,47677.0,23223,Richmond,VA,184950.0,0.0,0.0
26.18,-80.23,95200.0,37668.0,19284.0,44420.0,33319,Lauderhill,FL,109000.0,428000.0,90000.0
39.34,-76.69,131200.0,34471.0,23269.0,60161.0,21215,Baltimore,MD,89950.0,0.0,0.0
40.67,-73.87,441100.0,35079.0,29211.0,94469.0,11208,New York,NY,565000.0,0.0,0.0
35.33,-97.48,119400.0,55697.0,20199.0,53666.0,73160,Moore,OK,179900.0,269900.0,90000.0
29.77,-95.41,308700.0,98725.0,16083.0,30853.0,77007,Houston,TX,449900.0,456000.0,0.0
38.0,-121.81,203300.0,53953.0,20740.0,62439.0,94509,Antioch,CA,400000.0,0.0,399975.0
47.68,-122.29,492700.0,84159.0,20456.0,46206.0,98115,Seattle,WA,777000.0,899000.0,0.0
29.75,-95.49,224900.0,54594.0,19756.0,39208.0,77057,Houston,TX,292250.0,669500.0,129900.0
28.51,-81.16,205600.0,62054.0,20057.0,57881.0,32828,Orlando,FL,300000.0,349900.0,0.0
36.04,-115.15,177400.0,59629.0,22849.0,56300.0,89123,Las Vegas,NV,325000.0,408499.5,200000.0
40.77,-74.03,307600.0,40903.0,22842.0,66515.0,07087,Union City,NJ,429000.0,699999.0,289000.0
41.81,-87.6,232900.0,39055.0,20305.0,40603.0,60615,Chicago,IL,235000.0,499925.0,116250.0
33.7,-84.7,149400.0,60035.0,21025.0,61912.0,30135,Douglasville,GA,214200.0,372417.0,144000.0
39.3,-83.0,114700.0,42526.0,21126.0,57842.0,45601,Chillicothe,OH,127500.0,210000.0,0.0
35.94,-78.8,152600.0,54767.0,15653.0,41937.0,27703,Durham,NC,295000.0,372500.0,143750.0
36.86,-76.03,435600.0,59017.0,19576.0,41544.0,23451,Virginia Beach,VA,478000.0,589350.0,159900.0
42.99,-78.73,180800.0,75189.0,22676.0,53555.0,14221,Amherst,NY,242000.0,297000.0,0.0
40.23,-75.29,301100.0,76263.0,21837.0,55138.0,19446,Lansdale,PA,322500.0,397375.0,0.0
45.67,-122.48,186400.0,58274.0,18027.0,52893.0,98682,Vancouver,WA,385700.0,549900.0,299923.5
32.72,-97.46,122400.0,41573.0,20809.0,46746.0,76116,Fort Worth,TX,271950.0,420000.0,156000.0
36.26,-115.17,139500.0,62811.0,19191.0,60589.0,89031,North Las Vegas,NV,274900.0,366240.0,212900.0
39.12,-76.51,308000.0,88880.0,21643.0,60576.0,21122,Pasadena,MD,325900.0,515990.0,0.0
35.5,-118.8,146000.0,54126.0,20215.0,64587.0,93306,Bakersfield,CA,229999.0,325000.0,0.0
18.34,-66.17,0.0,0.0,29037.0,79304.0,00956,Bayamon,AL,92000.0,0.0,0.0
40.66,-73.96,615700.0,42922.0,22501.0,56829.0,11225,New York,NY,705000.0,0.0,0.0
29.57,-98.62,159100.0,70689.0,18391.0,49951.0,78249,San Antonio,TX,251900.0,302990.0,0.0
26.21,-80.27,123100.0,43689.0,20686.0,44327.0,33321,Tamarac,FL,215000.0,0.0,139900.0
38.43,-121.44,239800.0,70616.0,20231.0,60435.0,95758,Elk Grove,CA,398999.0,0.0,0.0
35.9,-87.0,299700.0,73043.0,17765.0,48118.0,37064,Franklin,TN,590237.5,639900.0,0.0
41.95,-87.75,265000.0,46816.0,24770.0,71663.0,60641,Chicago,IL,333250.0,449900.0,0.0
32.86,-96.59,120900.0,55149.0,21137.0,58094.0,75043,Garland,TX,214945.0,368950.0,165000.0
42.08,-71.04,238500.0,44144.0,22044.0,61025.0,02301,Brockton,MA,289900.0,0.0,269900.0
43.22,-77.45,179100.0,69189.0,20116.0,50587.0,14580,Webster,NY,244950.0,298950.0,0.0
41.71,-87.76,201700.0,57381.0,22427.0,56855.0,60453,Oak Lawn,IL,197100.0,339900.0,114900.0
40.1,-74.94,265600.0,60657.0,21698.0,55493.0,19020,Bensalem,PA,279950.0,389000.0,0.0
41.98,-87.66,216100.0,38970.0,21169.0,42752.0,60660,Chicago,IL,245000.0,449450.0,125000.0
39.6,-75.6,190700.0,54233.0,21373.0,59250.0,19720,New Castle,DE,189900.0,460000.0,135000.0
35.95,-78.95,211000.0,45831.0,18489.0,45023.0,27707,Durham,NC,299000.0,487500.0,0.0
38.9,-94.9,185600.0,70241.0,19864.0,55805.0,66061,Olathe,KS,379900.0,415000.0,0.0
40.03,-75.12,97100.0,33966.0,22358.0,68104.0,19120,Philadelphia,PA,106500.0,0.0,100000.0
32.0,-81.2,162300.0,48750.0,19995.0,50954.0,31419,Savannah,GA,185000.0,299375.0,114500.0
32.98,-80.0,154400.0,58037.0,18805.0,53588.0,29445,Goose Creek,SC,209900.0,0.0,160000.0
36.2,-119.4,160000.0,44775.0,20648.0,69721.0,93274,Tulare,CA,245900.0,312050.0,142500.0
26.6,-80.17,223500.0,63891.0,20004.0,48808.0,33467,Greenacres,FL,327000.0,473495.0,119950.0
35.2,-118.8,109700.0,33711.0,21275.0,82658.0,93307,Bakersfield,CA,195000.0,0.0,136250.0
37.44,-121.84,513400.0,95437.0,19241.0,66943.0,95035,Milpitas,CA,995000.0,0.0,904000.0
29.82,-94.97,120000.0,53726.0,17327.0,49507.0,77521,Baytown,TX,209900.0,383500.0,139000.0
39.26,-76.5,155800.0,48267.0,21686.0,55786.0,21222,Dundalk,MD,149900.0,0.0,138250.0
33.4,-111.93,171500.0,50455.0,21121.0,48671.0,85282,Tempe,AZ,284000.0,397450.0,173400.0
38.86,-77.1,416900.0,76052.0,19775.0,47233.0,22204,Arlington,VA,427000.0,725000.0,257500.0
39.15,-77.29,288400.0,84560.0,21291.0,57367.0,20874,Germantown,MD,299900.0,0.0,239900.0
35.35,-119.06,158300.0,47593.0,21654.0,58409.0,93309,Bakersfield,CA,223950.0,338000.0,130000.0
36.3,-119.6,182500.0,52611.0,21067.0,65264.0,93230,Hanford,CA,269900.0,310700.0,0.0
36.2,-86.5,211500.0,72168.0,16943.0,46463.0,37122,Mount Juliet,TN,389900.0,440450.0,0.0
33.08,-96.61,186100.0,91632.0,20708.0,63140.0,75002,Allen,TX,359900.0,649950.0,0.0
33.65,-117.68,476200.0,84871.0,20094.0,59182.0,92630,Lake Forest,CA,732305.5,1067444.0,391950.0
37.67,-122.11,330800.0,56656.0,20609.0,61635.0,94541,Hayward,CA,630000.0,0.0,589000.0
39.6,-86.1,149000.0,63265.0,18350.0,48555.0,46143,Greenwood,IN,245995.0,290000.0,0.0
42.06,-87.93,294000.0,68710.0,20917.0,55219.0,60056,Mount Prospect,IL,304500.0,369950.0,127000.0
34.09,-80.93,143700.0,51040.0,20278.0,50141.0,29223,Columbia,SC,189000.0,317250.0,0.0
33.76,-118.2,274300.0,43404.0,19853.0,39347.0,90802,Long Beach,CA,449950.0,0.0,329500.0
47.74,-122.34,326400.0,51499.0,20180.0,44555.0,98133,Shoreline,WA,547250.0,754500.0,0.0
25.6,-80.33,224800.0,59768.0,20632.0,63226.0,33157,Village of Palmetto Bay,FL,382400.0,595000.0,139450.0
30.29,-81.51,141300.0,51371.0,18818.0,48789.0,32246,Jacksonville,FL,245000.0,388490.0,132000.0
34.76,-82.22,197000.0,75832.0,17050.0,46979.0,29681,Simpsonville,SC,294990.0,326900.0,0.0
37.51,-121.99,480700.0,85945.0,20759.0,61148.0,94538,Fremont,CA,964995.0,0.0,0.0
36.9,-121.7,366100.0,55208.0,22359.0,82474.0,95076,Watsonville,CA,649000.0,0.0,512500.0
32.58,-83.65,134900.0,58276.0,19372.0,50163.0,31088,Warner Robins,GA,174700.0,249900.0,77000.0
33.2,-111.6,189200.0,73367.0,14570.0,48870.0,85142,Queen Creek,AZ,318990.0,450000.0,199000.0
35.31,-80.9,123400.0,48491.0,17550.0,47208.0,28216,Charlotte,NC,199900.0,399900.0,129899.5
35.8,-81.3,152500.0,46330.0,20398.0,50026.0,28601,Hickory,NC,239250.0,319900.0,0.0
42.35,-87.87,125500.0,41006.0,22054.0,71714.0,60085,Waukegan,IL,134937.5,0.0,124950.0
40.67,-73.94,582300.0,34794.0,23142.0,63767.0,11213,New York,NY,565000.0,0.0,0.0
36.0,-86.5,154100.0,56967.0,17977.0,49322.0,37167,Smyrna,TN,288495.0,397400.0,167000.0
33.45,-84.19,147600.0,57913.0,17180.0,49380.0,30253,McDonough,GA,207900.0,420200.0,131745.0
28.61,-81.3,171300.0,40137.0,21327.0,46914.0,32792,Winter Park,FL,303450.0,410000.0,0.0
30.38,-97.71,146100.0,43537.0,17749.0,44072.0,78758,Austin,TX,289450.0,0.0,0.0
38.87,-76.97,268200.0,34685.0,20159.0,49864.0,20020,Washington,DC,349450.0,0.0,199200.0
32.48,-84.87,114000.0,40972.0,21022.0,55332.0,31907,Columbus,GA,88000.0,0.0,0.0
34.3,-89.5,183700.0,43929.0,15760.0,36699.0,38655,Oxford,MS,274900.0,420320.0,135000.0
32.37,-86.14,184100.0,62260.0,20853.0,50268.0,36117,Montgomery,AL,209900.0,252000.0,0.0
33.94,-117.95,416400.0,65804.0,21452.0,67619.0,90631,La Habra,CA,635000.0,1269495.0,464950.0
47.8,-117.5,210800.0,53820.0,19481.0,49193.0,99208,Spokane,WA,299853.5,414900.0,144900.0
42.76,-84.44,174100.0,39692.0,21492.0,51302.0,48823,East Lansing,MI,237200.0,320000.0,0.0
33.48,-82.1,150700.0,41666.0,18941.0,41585.0,30909,Augusta,GA,212900.0,240500.0,0.0
36.4,-86.5,172700.0,49632.0,16525.0,42758.0,37066,Gallatin,TN,336445.0,472350.0,0.0
38.56,-90.53,226000.0,82449.0,21684.0,56261.0,63021,Ballwin,MO,271450.0,369900.0,0.0
33.73,-118.01,593500.0,75599.0,19847.0,57245.0,92647,Huntington Beach,CA,737000.0,0.0,0.0
47.61,-122.3,407600.0,53570.0,15717.0,31454.0,98122,Seattle,WA,750000.0,915000.0,0.0
29.59,-82.4,200100.0,39608.0,20036.0,45842.0,32608,Gainesville,FL,259900.0,379000.0,0.0
36.03,-78.98,213100.0,46597.0,18836.0,46282.0,27705,Durham,NC,336200.0,425000.0,0.0
29.69,-95.65,117900.0,53879.0,20313.0,70837.0,77083,Houston,TX,191000.0,0.0,150000.0
35.22,-80.79,160100.0,35310.0,18312.0,43931.0,28205,Charlotte,NC,319900.0,449975.0,0.0
32.95,-80.2,181500.0,59449.0,17028.0,45057.0,29485,Summerville,SC,240000.0,442500.0,176500.0
40.2,-80.2,131400.0,50902.0,20573.0,49331.0,15301,Washington,PA,174950.0,284000.0,64400.0
27.9,-82.3,156100.0,52511.0,20591.0,52003.0,33511,Brandon,FL,242000.0,414990.0,0.0
33.57,-112.25,107100.0,45886.0,20520.0,56208.0,85345,Peoria,AZ,217500.0,0.0,185000.0
37.9,-121.7,349200.0,91343.0,17522.0,54605.0,94513,Brentwood,CA,624900.0,0.0,595000.0
32.74,-96.92,87800.0,36704.0,19992.0,73146.0,75211,Dallas,TX,215000.0,0.0,152000.0
41.27,-72.96,215000.0,52353.0,21112.0,55564.0,06516,West Haven,CT,189450.0,0.0,129000.0
39.8,-77.0,184000.0,59322.0,20074.0,50292.0,17331,Penn,PA,214900.0,299870.0,125000.0
30.4,-90.9,155600.0,57246.0,18298.0,50583.0,70726,Denham Springs,LA,204900.0,262450.0,0.0
32.6,-117.0,269800.0,57618.0,20202.0,79708.0,92154,San Diego,CA,465000.0,0.0,429450.0
32.74,-117.13,427200.0,47947.0,21089.0,44414.0,92104,San Diego,CA,699000.0,925000.0,396000.0
35.3,-106.7,168300.0,55544.0,19363.0,51404.0,87124,Rio Rancho,NM,215000.0,315000.0,135000.0
45.3,-122.5,275900.0,64023.0,19229.0,51359.0,97045,Oregon City,OR,466500.0,594975.0,299999.5
29.46,-98.67,143300.0,62482.0,17727.0,49435.0,78251,San Antonio,TX,199992.5,0.0,0.0
32.76,-117.07,365800.0,41866.0,21251.0,58560.0,92115,San Diego,CA,549900.0,0.0,0.0
33.4,-84.9,157700.0,47331.0,19292.0,53008.0,30263,Newnan,GA,254900.0,418524.0,0.0
38.45,-90.33,198000.0,65861.0,21112.0,52718.0,63129,Oakville,MO,227000.0,319000.0,0.0
28.67,-81.2,225000.0,68995.0,20179.0,56349.0,32765,Oviedo,FL,339250.0,399900.0,0.0
33.4,-111.79,114100.0,42768.0,20016.0,60885.0,85204,Mesa,AZ,230000.0,0.0,198000.0
36.5,-87.4,140700.0,44843.0,16695.0,44924.0,37040,Clarksville,TN,189900.0,238990.0,0.0
42.53,-70.97,333400.0,64430.0,21128.0,50944.0,01960,Peabody,MA,399900.0,0.0,0.0
39.28,-76.53,185000.0,55085.0,19865.0,49134.0,21224,Baltimore,MD,245000.0,441500.0,134900.0
33.62,-112.05,176900.0,45606.0,20596.0,46395.0,85022,Phoenix,AZ,278200.0,450000.0,184324.0
33.53,-112.18,74100.0,27267.0,19748.0,60161.0,85301,Glendale,AZ,179000.0,0.0,144950.0
36.17,-115.04,108200.0,44737.0,20374.0,70994.0,89110,Las Vegas,NV,225000.0,435500.0,172450.0
40.65,-73.93,426100.0,48400.0,26420.0,76174.0,11203,New York,NY,554500.0,0.0,0.0
39.05,-77.12,465000.0,97600.0,18558.0,40365.0,20852,North Bethesda,MD,446950.0,827450.0,228500.0
27.02,-82.35,164600.0,48768.0,15778.0,33001.0,34293,Venice,FL,279555.0,424595.0,179900.0
34.02,-84.5,198500.0,77661.0,19517.0,52936.0,30066,Marietta,GA,319850.0,443000.0,0.0
35.25,-80.69,127500.0,45983.0,19074.0,53629.0,28215,Charlotte,NC,218900.0,336950.0,121000.0
36.04,-95.88,175200.0,56199.0,18711.0,43414.0,74133,Tulsa,OK,202449.5,262000.0,0.0
33.67,-117.96,592100.0,84144.0,21235.0,55224.0,92646,Huntington Beach,CA,798000.0,1050000.0,439000.0
37.6,-122.0,474300.0,82083.0,20433.0,69516.0,94587,Union City,CA,859419.0,0.0,0.0
40.64,-74.02,615300.0,37580.0,29018.0,99598.0,11220,New York,NY,580000.0,0.0,0.0
35.81,-78.89,360600.0,120679.0,13698.0,39178.0,27519,Cary,NC,467017.5,515000.0,0.0
37.67,-120.94,195400.0,55049.0,20939.0,58311.0,95355,Modesto,CA,340750.0,415000.0,0.0
40.83,-73.95,369800.0,37655.0,20638.0,56438.0,10031,New York,NY,542500.0,0.0,0.0
42.3,-114.5,150800.0,43726.0,19589.0,52010.0,83301,Twin Falls,ID,234900.0,325999.0,130000.0
26.94,-80.13,263000.0,67798.0,19331.0,49396.0,33458,Jupiter,FL,415000.0,646495.0,188400.0
37.72,-121.91,562800.0,114812.0,14907.0,46016.0,94568,Dublin,CA,929000.0,1499000.0,0.0
39.16,-76.64,247900.0,60430.0,21066.0,53684.0,21061,Glen Burnie,MD,257000.0,0.0,0.0
29.98,-95.18,156600.0,86523.0,17768.0,53578.0,77346,Atascocita,TX,256705.5,347287.0,150000.0
48.1,-113.8,213000.0,44982.0,20113.0,49693.0,59901,Kalispell,MT,379000.0,529500.0,219900.0
46.2,-123.1,177900.0,42930.0,19985.0,49205.0,98632,Longview,WA,258250.0,399950.0,165000.0
44.07,-123.08,269200.0,31080.0,19068.0,40521.0,97401,Eugene,OR,360000.0,455000.0,0.0
36.06,-115.3,198400.0,64084.0,14502.0,39712.0,89148,Las Vegas,NV,353950.0,412990.0,0.0
36.0,-86.8,443300.0,114257.0,17567.0,49035.0,37027,Brentwood,TN,685000.0,752490.0,0.0
33.8,-78.9,183000.0,51414.0,12865.0,32180.0,29579,Forestbrook,SC,248475.0,399900.0,113200.0
35.03,-85.15,169500.0,54595.0,19332.0,46228.0,37421,Chattanooga,TN,239900.0,299000.0,0.0
41.88,-88.02,244900.0,70448.0,20450.0,51468.0,60148,Lombard,IL,259900.0,445000.0,129900.0
37.7,-85.9,155000.0,47822.0,19156.0,48194.0,42701,Elizabethtown,KY,202250.0,259000.0,79900.0
34.1,-117.39,162300.0,44550.0,20541.0,81516.0,92376,Rialto,CA,344999.5,0.0,285000.0
38.6,-121.27,213100.0,54915.0,20045.0,52973.0,95670,Rancho Cordova,CA,349999.0,0.0,284900.0
40.3,-83.1,172000.0,63130.0,18207.0,48107.0,43015,Delaware,OH,274650.0,385900.0,0.0
40.68,-73.95,623300.0,43996.0,23193.0,54316.0,11216,New York,NY,825000.0,889000.0,0.0
36.6,-76.3,331900.0,96091.0,19301.0,60473.0,23322,Chesapeake,VA,385650.0,420900.0,0.0
35.18,-80.64,149700.0,51527.0,18539.0,49635.0,28227,Mint Hill,NC,270000.0,365450.0,0.0
37.3,-122.07,1000001.0,127870.0,21122.0,60717.0,95014,Cupertino,CA,1999900.0,0.0,0.0
40.08,-82.98,122800.0,37518.0,19795.0,46347.0,43229,Columbus,OH,156900.0,0.0,119900.0
35.8,-81.7,115400.0,37295.0,21359.0,54996.0,28655,Morganton,NC,199900.0,0.0,0.0
40.2,-74.81,350000.0,91182.0,19798.0,51334.0,19067,Lower Makefield,PA,414900.0,506497.5,0.0
41.85,-87.68,230700.0,35336.0,25196.0,82739.0,60608,Chicago,IL,313000.0,414000.0,0.0
39.44,-84.38,133900.0,46006.0,19652.0,52822.0,45044,Middletown,OH,164900.0,349450.0,68950.0
31.89,-106.43,96600.0,41009.0,20158.0,59058.0,79924,El Paso,TX,112000.0,0.0,89900.0
35.7,-88.8,138500.0,52233.0,19568.0,49808.0,38305,Jackson,TN,204900.0,0.0,0.0
33.71,-117.76,697000.0,103385.0,13749.0,38486.0,92620,Irvine,CA,1085000.0,1220445.5,0.0
26.64,-80.24,264100.0,75632.0,18603.0,53718.0,33414,Wellington,FL,464500.0,629000.0,182000.0
35.13,-80.85,242500.0,54915.0,19287.0,42263.0,28210,Charlotte,NC,341417.5,420000.0,0.0
33.46,-111.99,109100.0,32109.0,19676.0,56145.0,85008,Phoenix,AZ,247400.0,429000.0,154902.5
32.74,-117.09,266700.0,37534.0,20540.0,69813.0,92105,San Diego,CA,399900.0,0.0,377000.0
39.4,-84.6,134800.0,51452.0,20702.0,52613.0,45013,Hamilton,OH,164900.0,297000.0,90000.0
29.83,-90.15,147600.0,41948.0,20006.0,56344.0,70072,Marrero,LA,148500.0,0.0,104934.5
36.11,-115.21,103600.0,37223.0,22026.0,50519.0,89103,Las Vegas,NV,219950.0,459444.0,142499.0
35.9,-86.5,168200.0,62295.0,17987.0,49103.0,37129,Murfreesboro,TN,299500.0,394500.0,174900.0
26.35,-80.16,229200.0,53801.0,19814.0,41722.0,33433,Boca Raton,FL,319900.0,500000.0,160000.0
44.73,-93.21,218700.0,80378.0,18875.0,49084.0,55124,Apple Valley,MN,294425.0,425000.0,185000.0
38.9,-97.6,118700.0,45557.0,20815.0,51499.0,67401,Salina,KS,132950.0,252000.0,64900.0
34.03,-84.7,190100.0,75421.0,18467.0,54373.0,30101,Acworth,GA,299900.0,414950.0,141572.0
37.66,-122.42,586400.0,77058.0,21061.0,63975.0,94080,South San Francisco,CA,899000.0,0.0,0.0
28.52,-81.24,161400.0,52684.0,18818.0,53024.0,32825,Orlando,FL,259999.0,359949.5,0.0
30.5,-97.64,149600.0,61401.0,18731.0,52932.0,78664,Round Rock,TX,259000.0,0.0,224000.0
36.03,-115.07,200100.0,68383.0,18379.0,47095.0,89074,Henderson,NV,323188.0,429990.0,185200.0
43.2,-78.7,106500.0,49849.0,20875.0,50666.0,14094,Lockport,NY,139000.0,256950.0,84900.0
39.0,-77.04,505500.0,78738.0,17582.0,37445.0,20910,Silver Spring,MD,499450.0,654450.0,0.0
33.74,-84.1,114600.0,45792.0,19021.0,52945.0,30058,Lithonia,GA,149800.0,0.0,125000.0
30.09,-95.59,147900.0,60782.0,13526.0,39351.0,77375,Tomball,TX,300000.0,444995.0,0.0
36.0,-80.0,161000.0,53386.0,18967.0,46690.0,27265,High Point,NC,189900.0,259900.0,0.0
38.3,-85.8,124900.0,43417.0,19589.0,47472.0,47150,New Albany,IN,139900.0,287900.0,86200.0
36.91,-76.14,276900.0,62949.0,19072.0,47938.0,23455,Virginia Beach,VA,350000.0,440000.0,163000.0
38.99,-84.65,144000.0,53637.0,19742.0,49968.0,41042,Florence,KY,165000.0,263650.0,99900.0
42.7,-73.6,171900.0,47640.0,21558.0,53606.0,12180,Troy,NY,186712.5,374900.0,135450.0
25.94,-80.32,176400.0,51076.0,20916.0,63544.0,33015,Country Club,FL,266950.0,438750.0,154100.0
29.54,-98.72,155700.0,76649.0,14708.0,44817.0,78254,San Antonio,TX,254004.0,301990.0,0.0
30.38,-97.67,135700.0,38884.0,17513.0,49301.0,78753,Austin,TX,249900.0,0.0,0.0
33.87,-84.11,175600.0,67395.0,19822.0,59660.0,30047,Lilburn,GA,259900.0,383375.0,0.0
21.34,-158.01,435500.0,86093.0,17331.0,62730.0,96706,Ewa Beach,HI,638615.0,0.0,385000.0
33.67,-118.01,752500.0,82564.0,19453.0,45317.0,92648,Huntington Beach,CA,1199000.0,1489000.0,0.0
33.79,-84.2,107400.0,41179.0,18810.0,50384.0,30083,Stone Mountain,GA,145000.0,0.0,119000.0
39.9,-74.4,118800.0,35984.0,19201.0,33263.0,08759,Manchester,NJ,146450.0,0.0,134950.0
43.13,-89.35,179200.0,49105.0,20285.0,44034.0,53704,Madison,WI,219900.0,0.0,152000.0
30.52,-84.33,150700.0,44722.0,20247.0,47359.0,32303,Tallahassee,FL,155000.0,349900.0,99000.0
42.9,-83.7,136100.0,62245.0,19431.0,49209.0,48439,Grand Blanc,MI,219900.0,245450.0,0.0
37.72,-122.44,602400.0,71625.0,21975.0,79407.0,94112,San Francisco,CA,998000.0,0.0,0.0
40.79,-74.02,305600.0,52908.0,22062.0,60773.0,07047,North Bergen,NJ,429000.0,675000.0,210000.0
47.9,-122.18,280300.0,71698.0,18880.0,51802.0,98208,Seattle Hill-Silver Firs,WA,445000.0,0.0,351638.0
30.4,-97.75,312300.0,66828.0,19361.0,38891.0,78759,Austin,TX,434900.0,554000.0,0.0
38.9,-121.3,330600.0,71713.0,18133.0,47354.0,95648,Lincoln,CA,479950.0,624000.0,308000.0
41.2,-112.2,151100.0,50739.0,19038.0,56363.0,84404,Ogden,UT,250000.0,440000.0,199800.0
32.9,-97.4,138800.0,75472.0,16366.0,48058.0,76179,Fort Worth,TX,248999.0,408990.0,170000.0
39.93,-75.15,165100.0,39413.0,19624.0,49732.0,19148,Philadelphia,PA,264450.0,379450.0,0.0
26.59,-80.13,133600.0,51792.0,17744.0,53766.0,33463,Greenacres,FL,260995.0,429990.0,0.0
40.7,-74.07,315800.0,49894.0,21771.0,60104.0,07305,Jersey City,NJ,399000.0,749499.5,279000.0
36.01,-79.87,137100.0,42270.0,18666.0,46242.0,27407,Greensboro,NC,154900.0,263125.0,0.0
34.01,-118.11,385200.0,47438.0,19027.0,62549.0,90640,Montebello,CA,549999.5,0.0,467000.0
43.65,-116.43,201700.0,65941.0,15441.0,47098.0,83646,Meridian,ID,349900.0,427450.0,0.0
33.4,-88.8,139400.0,30625.0,17376.0,42108.0,39759,Starkville,MS,244500.0,0.0,0.0
25.86,-80.14,215000.0,37317.0,16946.0,35249.0,33141,Miami Beach,FL,399900.0,749000.0,160000.0
29.98,-95.58,154500.0,69139.0,18305.0,46017.0,77070,Houston,TX,229900.0,349950.0,0.0
39.07,-76.98,375200.0,70628.0,20461.0,54612.0,20904,Silver Spring,MD,437000.0,0.0,0.0
42.5,-73.3,178600.0,42633.0,20419.0,46504.0,01201,Pittsfield,MA,182400.0,425000.0,129900.0
32.8,-96.79,254400.0,63551.0,14547.0,26279.0,75204,Dallas,TX,435000.0,479900.0,0.0
42.35,-71.15,350500.0,48687.0,19905.0,42780.0,02135,Boston,MA,517000.0,0.0,0.0
28.8,-81.3,160500.0,50147.0,18620.0,49481.0,32771,Sanford,FL,278250.0,449900.0,0.0
42.42,-71.0,306900.0,51863.0,20476.0,51808.0,02151,Revere,MA,399000.0,0.0,0.0
43.02,-89.41,244900.0,69859.0,18892.0,45728.0,53711,Madison,WI,325000.0,410000.0,0.0
39.99,-75.22,106600.0,27914.0,18258.0,43172.0,19131,Philadelphia,PA,124900.0,0.0,95000.0
37.31,-121.9,728400.0,97694.0,20696.0,51939.0,95125,San Jose,CA,1425000.0,0.0,0.0
32.95,-117.2,832900.0,127968.0,17528.0,48940.0,92130,San Diego,CA,1299000.0,1419500.0,0.0
26.53,-80.11,162900.0,51505.0,18728.0,41896.0,33436,Boynton Beach,FL,266500.0,532000.0,132500.0
40.77,-73.82,380600.0,46566.0,20120.0,54878.0,11354,New York,NY,750000.0,998000.0,258000.0
33.16,-96.72,197100.0,98524.0,25584.0,74734.0,75070,McKinney,TX,365000.0,400000.0,0.0
36.11,-115.28,165500.0,56009.0,19288.0,49778.0,89147,Las Vegas,NV,289949.5,404500.0,169000.0
40.5,-74.52,332400.0,85148.0,18495.0,49921.0,08873,Franklin,NJ,327280.0,0.0,255000.0
41.5,-72.7,234900.0,59994.0,19863.0,47648.0,06457,Middletown,CT,211450.0,359900.0,125000.0
43.8,-91.2,147100.0,44112.0,19972.0,49282.0,54601,La Crosse,WI,180000.0,307450.0,124900.0
34.06,-84.38,323400.0,102305.0,19610.0,52573.0,30075,Roswell,GA,450000.0,499000.0,0.0
33.12,-96.88,285900.0,111318.0,24900.0,72723.0,75034,Frisco,TX,521285.0,545497.0,0.0
29.49,-98.46,276600.0,62525.0,17428.0,39197.0,78209,San Antonio,TX,455000.0,539500.0,0.0
34.07,-118.35,945000.0,71589.0,18646.0,36865.0,90036,Los Angeles,CA,1833500.0,1995000.0,0.0
45.6,-123.0,272000.0,69724.0,18661.0,48349.0,97124,Hillsboro,OR,393000.0,571000.0,299000.0
47.72,-122.21,364900.0,77688.0,16891.0,40407.0,98034,Kirkland,WA,650000.0,975000.0,309000.0
26.02,-80.19,197700.0,49966.0,19413.0,45921.0,33021,Hollywood,FL,299000.0,469000.0,139000.0
41.31,-72.94,246000.0,36275.0,20581.0,53600.0,06511,New Haven,CT,165500.0,0.0,0.0
21.27,-157.82,433200.0,49971.0,16393.0,31470.0,96815,Honolulu,HI,499000.0,1438000.0,312500.0
26.11,-80.27,173900.0,58270.0,19174.0,42847.0,33324,Plantation,FL,253000.0,777450.0,159900.0
38.3,-77.6,246100.0,78164.0,18770.0,54962.0,22407,Fredericksburg,VA,304900.0,0.0,249900.0
33.67,-111.86,586800.0,111042.0,15299.0,37270.0,85255,Scottsdale,AZ,845000.0,874900.0,0.0
45.77,-108.58,182300.0,50828.0,20624.0,46564.0,59102,Billings,MT,229900.0,359900.0,160000.0
39.26,-84.24,210900.0,82772.0,19444.0,53267.0,45140,Loveland,OH,319900.0,399700.0,0.0
28.31,-82.71,72800.0,31704.0,18432.0,42619.0,34668,Port Richey,FL,129900.0,0.0,122950.0
33.5,-117.3,290900.0,75053.0,20415.0,62079.0,92562,Murrieta,CA,474000.0,694000.0,0.0
41.91,-71.12,242900.0,49732.0,19893.0,49036.0,02780,Taunton,MA,269900.0,419999.0,184900.0
32.85,-97.29,137000.0,66306.0,19755.0,54911.0,76137,Fort Worth,TX,239900.0,0.0,0.0
40.6,-83.1,93400.0,39591.0,20188.0,54790.0,43302,Marion,OH,85000.0,0.0,0.0
33.93,-84.46,250500.0,48093.0,19537.0,45182.0,30067,Marietta,GA,324500.0,620000.0,137700.0
32.81,-117.2,447300.0,64026.0,20658.0,51332.0,92117,San Diego,CA,650000.0,895000.0,0.0
35.6,-97.5,185300.0,75741.0,17051.0,43933.0,73013,Edmond,OK,249858.5,283778.0,0.0
38.9,-90.5,161900.0,52633.0,19104.0,48514.0,63301,Saint Charles,MO,239000.0,299900.0,0.0
38.89,-77.1,601600.0,113683.0,17863.0,33476.0,22201,Arlington,VA,527500.0,899900.0,0.0
42.11,-87.98,332700.0,79892.0,20013.0,50582.0,60004,Arlington Heights,IL,339000.0,399700.0,129900.0
40.82,-73.36,467700.0,97796.0,20825.0,67094.0,11746,Huntington,NY,619000.0,819894.0,267000.0
33.44,-111.86,119900.0,34589.0,17915.0,46092.0,85201,Mesa,AZ,210000.0,0.0,157500.0
37.98,-122.33,237800.0,52976.0,18964.0,59861.0,94806,San Pablo,CA,479000.0,0.0,475000.0
40.1,-76.3,220000.0,64145.0,19833.0,49779.0,17601,Manheim,PA,323504.0,348290.0,0.0
33.1,-80.2,152000.0,51814.0,24515.0,66731.0,29483,Summerville,SC,262900.0,484900.0,169900.0
40.1,-74.4,329500.0,88588.0,19275.0,54392.0,08527,Jackson,NJ,382000.0,675000.0,255000.0
33.59,-117.13,269700.0,78880.0,15914.0,53892.0,92563,Murrieta,CA,430990.0,479900.0,0.0
33.68,-79.02,157900.0,43792.0,14567.0,36499.0,29588,Socastee,SC,189900.0,327745.0,124500.0
33.47,-101.94,168800.0,75921.0,15732.0,39023.0,79424,Lubbock,TX,244900.0,287500.0,0.0
38.68,-77.32,295500.0,98169.0,19339.0,53394.0,22192,Woodbridge,VA,347450.0,649900.0,274900.0
39.71,-105.03,151000.0,39659.0,19171.0,61296.0,80219,Denver,CO,329500.0,0.0,300000.0
33.0,-117.07,491300.0,92531.0,20263.0,47490.0,92128,San Diego,CA,599499.5,877000.0,408500.0
39.71,-75.73,288600.0,72209.0,19402.0,51322.0,19711,Newark,DE,279900.0,439000.0,0.0
33.02,-96.52,158100.0,81413.0,15553.0,48197.0,75098,Wylie,TX,331490.0,370057.0,0.0
34.09,-118.13,468500.0,53027.0,19315.0,52735.0,91801,Alhambra,CA,669000.0,0.0,0.0
42.51,-82.94,66000.0,40289.0,19593.0,47388.0,48066,Roseville,MI,95000.0,0.0,78000.0
33.8,-112.4,299900.0,101526.0,12080.0,37182.0,85383,Peoria,AZ,400000.0,450000.0,0.0
30.16,-97.82,187900.0,66309.0,16015.0,40651.0,78748,Austin,TX,300000.0,425000.0,236750.0
40.03,-75.18,115100.0,29961.0,18748.0,43329.0,19144,Philadelphia,PA,142500.0,0.0,85900.0
43.56,-116.29,172100.0,64376.0,17539.0,50034.0,83709,Boise,ID,280000.0,391250.0,209900.0
40.2,-74.3,349700.0,84190.0,19755.0,56257.0,07728,Freehold,NJ,409000.0,700000.0,236500.0
34.26,-118.42,283000.0,51477.0,22465.0,103689.0,91331,Los Angeles,CA,485000.0,0.0,459500.0
38.12,-122.2,257900.0,73509.0,18348.0,53042.0,94591,Vallejo,CA,449000.0,560000.0,352000.0
33.53,-82.09,145200.0,62758.0,19966.0,50913.0,30907,Martinez,GA,245000.0,358500.0,0.0
40.0,-75.6,366900.0,84843.0,19818.0,49534.0,19380,West Chester,PA,425000.0,491400.0,0.0
35.4,-80.5,147700.0,50632.0,18348.0,49160.0,28025,Concord,NC,245495.0,354000.0,109950.0
39.6,-75.7,230300.0,67510.0,19016.0,51899.0,19702,Newark,DE,214900.0,380000.0,133000.0
34.03,-84.6,168900.0,59758.0,19030.0,52252.0,30144,Kennesaw,GA,239900.0,350000.0,0.0
25.99,-80.21,138900.0,43830.0,19733.0,63576.0,33023,Miramar,FL,260000.0,0.0,162500.0
30.03,-90.23,188500.0,53282.0,19169.0,51116.0,70065,Kenner,LA,216000.0,339900.0,123000.0
35.05,-92.5,159000.0,52556.0,17446.0,44723.0,72034,Conway,AR,214000.0,284000.0,0.0
34.9,-89.8,173800.0,68998.0,16292.0,45956.0,38654,Olive Branch,MS,275000.0,291925.0,0.0
36.7,-76.0,327500.0,92574.0,16574.0,51748.0,23456,Virginia Beach,VA,389000.0,465000.0,0.0
40.5,-88.9,160300.0,54027.0,18149.0,52879.0,61761,Normal,IL,159900.0,239900.0,89900.0
39.84,-84.11,114900.0,55219.0,19122.0,49930.0,45424,Huber Heights,OH,129900.0,215000.0,71450.0
29.3,-98.4,86600.0,37019.0,17560.0,50637.0,78223,San Antonio,TX,150000.0,0.0,119949.5
39.35,-84.3,227800.0,88395.0,17627.0,50627.0,45040,Mason,OH,397997.5,457000.0,0.0
34.11,-118.19,382100.0,50996.0,19892.0,62430.0,90042,Los Angeles,CA,749000.0,999000.0,457000.0
36.15,-80.33,178300.0,48892.0,18988.0,45015.0,27106,Winston-Salem,NC,265000.0,421997.5,81900.0
34.7,-77.5,149800.0,42620.0,18455.0,49252.0,28540,Jacksonville,NC,147000.0,232450.0,88960.0
39.6,-104.74,372400.0,101280.0,14607.0,41219.0,80016,Aurora,CO,542995.0,600000.0,0.0
32.94,-97.07,226900.0,76216.0,18496.0,46320.0,76051,Grapevine,TX,389000.0,425000.0,0.0
32.79,-116.97,380200.0,46856.0,19966.0,57767.0,92020,El Cajon,CA,569000.0,0.0,354495.0
38.0,-122.1,379100.0,75672.0,18607.0,47065.0,94553,Martinez,CA,585000.0,0.0,557500.0
42.3,-122.8,250900.0,49026.0,18534.0,44444.0,97504,Medford,OR,365000.0,519950.0,228900.0
26.0,-97.5,78500.0,29835.0,17566.0,59408.0,78520,Brownsville,TX,135000.0,185000.0,0.0
35.6,-118.9,170900.0,42543.0,18839.0,52447.0,93308,Oildale,CA,209800.0,332000.0,120000.0
37.44,-77.68,240000.0,80830.0,17536.0,46982.0,23112,Midlothian,VA,349500.0,397995.0,0.0
40.89,-73.84,391300.0,44012.0,23318.0,67813.0,10466,New York,NY,444500.0,0.0,0.0
33.83,-117.62,328000.0,71402.0,19448.0,67917.0,92882,Corona,CA,499999.0,584900.0,0.0
35.7,-78.7,186700.0,54904.0,18064.0,47033.0,27603,Raleigh,NC,303000.0,460000.0,0.0
28.7,-81.9,128000.0,40364.0,17935.0,38246.0,34748,Leesburg,FL,185000.0,375000.0,133000.0
34.12,-80.87,160600.0,63753.0,15678.0,44229.0,29229,Columbia,SC,201400.0,235000.0,0.0
29.47,-98.8,190700.0,85508.0,9435.0,29007.0,78253,San Antonio,TX,299000.0,335700.0,0.0
37.68,-122.48,569500.0,76978.0,19778.0,60927.0,94015,Daly City,CA,899999.0,0.0,0.0
33.6,-112.28,113000.0,34613.0,17398.0,27789.0,85351,Sun City,AZ,183950.0,0.0,163950.0
37.3,-80.4,256300.0,39477.0,18961.0,53311.0,24060,Blacksburg,VA,287200.0,377475.0,0.0
29.6,-81.2,198900.0,51153.0,16012.0,37821.0,32137,Palm Coast,FL,334900.0,435000.0,139500.0
34.0,-117.0,224000.0,58420.0,18611.0,52606.0,92399,Yucaipa,CA,393500.0,599000.0,269000.0
34.5,-103.3,123800.0,39983.0,16812.0,45006.0,88101,Clovis,NM,179900.0,0.0,0.0
48.74,-122.53,287600.0,35765.0,19843.0,46172.0,98225,Bellingham,WA,399900.0,625000.0,235000.0
32.61,-96.87,142300.0,61729.0,18058.0,48877.0,75115,Desoto,TX,234500.0,389995.0,175000.0
45.48,-122.6,228000.0,50694.0,19386.0,47596.0,97206,Portland,OR,375000.0,577000.0,298500.0
41.83,-87.78,183800.0,53402.0,21338.0,63448.0,60402,Berwyn,IL,235000.0,357000.0,135000.0
41.11,-112.06,168500.0,58745.0,18944.0,62494.0,84015,Clearfield,UT,259900.0,410000.0,215000.0
39.33,-76.6,152900.0,38261.0,19860.0,49796.0,21218,Baltimore,MD,149000.0,0.0,99000.0
30.07,-95.37,110900.0,67742.0,18160.0,54609.0,77373,Spring,TX,179000.0,301955.0,139000.0
40.86,-74.13,328400.0,32104.0,19428.0,69816.0,07055,Passaic,NJ,277450.0,0.0,214950.0
26.19,-80.11,319500.0,60341.0,16059.0,28217.0,33308,Fort Lauderdale,FL,475000.0,669000.0,158750.0
26.09,-80.17,179300.0,47112.0,18486.0,49343.0,33312,Fort Lauderdale,FL,359000.0,549000.0,0.0
26.51,-80.15,225800.0,53745.0,18281.0,35938.0,33437,Boynton Beach,FL,305000.0,450000.0,179250.0
33.7,-116.23,157100.0,41335.0,18219.0,61827.0,92201,Indio,CA,325250.0,599000.0,248250.0
29.46,-98.57,85700.0,34992.0,18890.0,58811.0,78228,San Antonio,TX,149000.0,0.0,123750.0
34.57,-98.49,120200.0,47048.0,19628.0,49809.0,73505,Lawton,OK,115000.0,0.0,0.0
27.84,-82.35,149400.0,54631.0,14381.0,36693.0,33578,Riverview,FL,222090.0,336631.0,137850.0
35.7,-78.6,162600.0,60944.0,15757.0,42128.0,27529,Garner,NC,282778.0,376850.0,174900.0
39.0,-92.3,138100.0,48011.0,18493.0,46547.0,65202,Columbia,MO,165500.0,309999.0,119500.0
40.81,-74.19,330000.0,70434.0,18385.0,47312.0,07003,Bloomfield,NJ,312000.0,0.0,250000.0
33.04,-96.81,350000.0,99225.0,18939.0,47187.0,75093,Plano,TX,542300.0,588000.0,0.0
41.78,-87.77,208900.0,61903.0,19698.0,55026.0,60638,Chicago,IL,239900.0,352450.0,129500.0
38.84,-77.34,479700.0,102140.0,18561.0,55066.0,22030,Fairfax,VA,599888.0,750000.0,0.0
46.21,-119.18,146100.0,41990.0,18372.0,48753.0,99336,Kennewick,WA,206499.0,438900.0,178900.0
33.86,-84.35,401000.0,87759.0,17879.0,38423.0,30319,Brookhaven,GA,550000.0,625000.0,0.0
35.18,-89.77,158000.0,66845.0,17677.0,43079.0,38016,Memphis,TN,199925.0,248900.0,0.0
39.9,-75.6,382500.0,90873.0,19186.0,52388.0,19382,West Chester,PA,499900.0,557862.5,0.0
29.97,-90.09,184500.0,29071.0,14939.0,36228.0,70119,New Orleans,LA,296500.0,398000.0,0.0
40.8,-81.5,127600.0,46571.0,19110.0,47525.0,44646,Massillon,OH,154000.0,250200.0,0.0
34.3,-84.5,219900.0,59879.0,17310.0,49774.0,30114,Canton,GA,292000.0,389900.0,0.0
40.5,-105.2,224800.0,61799.0,17581.0,43930.0,80538,Loveland,CO,359943.0,624000.0,296250.0
33.2,-117.29,353100.0,64033.0,19175.0,51835.0,92056,Oceanside,CA,549000.0,0.0,409975.0
37.28,-121.94,658700.0,87204.0,18513.0,45260.0,95008,Campbell,CA,1298944.0,0.0,0.0
40.76,-73.99,810300.0,66599.0,15183.0,24711.0,10036,New York,NY,1327500.0,1450000.0,0.0
35.16,-101.88,140900.0,53945.0,19172.0,43516.0,79109,Amarillo,TX,184900.0,0.0,0.0
30.63,-88.29,178000.0,67911.0,17329.0,45118.0,36695,Mobile,AL,198200.0,0.0,0.0
43.14,-87.95,108800.0,33119.0,18841.0,46917.0,53209,Milwaukee,WI,79900.0,0.0,69500.0
43.9,-123.1,279900.0,56250.0,19086.0,44645.0,97405,Eugene,OR,399900.0,525000.0,0.0
29.54,-98.56,190100.0,55936.0,17717.0,39089.0,78230,San Antonio,TX,286250.0,369900.0,0.0
33.72,-117.91,332600.0,58463.0,19569.0,88123.0,92704,Santa Ana,CA,475000.0,0.0,339900.0
39.92,-75.19,151200.0,35761.0,18802.0,47261.0,19145,Philadelphia,PA,239900.0,375000.0,140000.0
37.67,-121.01,149500.0,39195.0,19288.0,51046.0,95350,Modesto,CA,289000.0,425000.0,240000.0
28.01,-82.78,152800.0,47676.0,18351.0,37240.0,34698,Dunedin,FL,289000.0,415000.0,109900.0
38.75,-90.54,195300.0,67179.0,18957.0,45834.0,63303,Saint Charles,MO,239900.0,310000.0,0.0
36.0,-81.5,101600.0,30968.0,19357.0,47703.0,28645,Lenoir,NC,179700.0,299900.0,59900.0
27.1,-80.3,180500.0,50716.0,17423.0,40405.0,34997,Stuart,FL,329000.0,419000.0,149999.0
40.74,-74.07,285000.0,46312.0,20045.0,52669.0,07306,Jersey City,NJ,499000.0,0.0,0.0
41.92,-87.76,206800.0,38707.0,25197.0,90407.0,60639,Chicago,IL,243000.0,336500.0,0.0
38.9,-90.7,180200.0,66352.0,17013.0,46175.0,63366,O Fallon,MO,235450.0,275000.0,0.0
33.67,-117.74,516400.0,92862.0,7202.0,16366.0,92618,Irvine,CA,1063538.0,1408944.0,0.0
41.38,-73.47,276900.0,53944.0,17694.0,49482.0,06810,Danbury,CT,319900.0,0.0,167450.0
32.86,-116.99,323500.0,71100.0,19310.0,53422.0,92071,Santee,CA,519900.0,0.0,389900.0
35.74,-78.72,231900.0,44123.0,17688.0,43210.0,27606,Raleigh,NC,344818.5,564990.0,0.0
39.8,-75.0,161600.0,48327.0,18213.0,44833.0,08021,Lindenwold,NJ,125000.0,0.0,107750.0
39.34,-84.42,203900.0,84010.0,17717.0,49060.0,45069,West Chester,OH,285000.0,336135.5,0.0
39.94,-75.18,193000.0,42068.0,15983.0,35113.0,19146,Philadelphia,PA,359000.0,497000.0,134900.0
27.8,-99.6,154400.0,63938.0,15196.0,54713.0,78045,Laredo,TX,215000.0,244450.0,0.0
30.5,-89.1,148300.0,46853.0,16469.0,45309.0,39503,Gulfport,MS,171900.0,249900.0,79000.0
39.34,-76.54,162400.0,48428.0,19655.0,50846.0,21206,Baltimore,MD,150000.0,0.0,120600.0
26.57,-82.02,176200.0,56118.0,14455.0,35848.0,33914,Cape Coral,FL,339999.0,519950.0,159900.0
33.05,-117.25,685700.0,90960.0,19649.0,49121.0,92024,Encinitas,CA,1454500.0,1649000.0,0.0
36.12,-79.74,103600.0,28677.0,17518.0,44567.0,27405,Greensboro,NC,125000.0,198900.0,69200.0
44.1,-94.0,158800.0,44926.0,17527.0,46327.0,56001,Mankato,MN,229950.0,343950.0,133900.0
34.8,-77.4,151400.0,48629.0,16153.0,42696.0,28546,Jacksonville,NC,160000.0,224900.0,88950.0
33.56,-117.73,463400.0,97931.0,18977.0,49046.0,92656,Aliso Viejo,CA,580000.0,0.0,435000.0
33.83,-117.91,349300.0,53532.0,17599.0,70401.0,92805,Anaheim,CA,549900.0,0.0,469888.0
40.82,-73.86,386600.0,35866.0,20571.0,58519.0,10473,New York,NY,335000.0,0.0,0.0
26.85,-80.19,321100.0,75072.0,16301.0,36017.0,33418,Palm Beach Gardens,FL,474700.0,649950.0,0.0
43.9,-121.3,267300.0,58157.0,16145.0,40583.0,97702,Bend,OR,499900.0,675000.0,302500.0
27.3,-80.29,99100.0,40179.0,17361.0,38285.0,34952,Port Saint Lucie,FL,219950.0,353950.0,137500.0
36.5,-87.2,173300.0,57443.0,15900.0,39945.0,37043,Clarksville,TN,284000.0,295000.0,0.0
38.4,-121.3,261900.0,77652.0,18974.0,61989.0,95624,Elk Grove,CA,439000.0,601470.0,0.0
33.92,-117.25,153300.0,42825.0,18967.0,73722.0,92553,Moreno Valley,CA,309450.0,0.0,281250.0
40.01,-75.15,61400.0,22654.0,18784.0,54133.0,19140,Philadelphia,PA,60000.0,0.0,60000.0
33.15,-96.95,161000.0,85446.0,11288.0,34934.0,75068,Little Elm,TX,309990.0,384900.0,0.0
38.83,-77.21,457600.0,93823.0,19279.0,55990.0,22003,Annandale,VA,569888.0,657475.0,209950.0
39.97,-86.18,269700.0,94045.0,16340.0,42234.0,46032,Carmel,IN,429900.0,480000.0,0.0
41.48,-90.49,113100.0,50092.0,19280.0,45099.0,61265,Moline,IL,117250.0,0.0,79900.0
37.52,-77.5,196700.0,43683.0,18085.0,39169.0,23225,Richmond,VA,248900.0,0.0,144950.0
33.2,-112.5,119300.0,54867.0,14237.0,51705.0,85326,Buckeye,AZ,219900.0,394749.5,199000.0
30.1,-81.9,140200.0,56573.0,17608.0,50815.0,32068,Middleburg,FL,226490.0,331850.0,128000.0
41.4,-74.5,225800.0,61146.0,17345.0,48418.0,10940,Middletown,NY,224900.0,0.0,196250.0
40.2,-105.0,258100.0,80000.0,16179.0,46876.0,80504,Longmont,CO,435000.0,484775.0,317500.0
34.0,-117.44,208500.0,56517.0,19232.0,75196.0,92509,Riverside,CA,400000.0,499999.0,0.0
33.65,-112.4,174800.0,49093.0,20386.0,47146.0,85374,Surprise,AZ,250000.0,412450.0,182950.0
33.0,-96.9,169400.0,78934.0,18514.0,51624.0,75007,Carrollton,TX,289950.0,355000.0,0.0
33.3,-96.6,174700.0,80291.0,11713.0,36090.0,75071,McKinney,TX,379995.0,401945.0,0.0
26.2,-97.7,78400.0,33780.0,17554.0,53152.0,78550,Harlingen,TX,139887.0,189900.0,0.0
44.9,-68.8,156700.0,40388.0,19159.0,44899.0,04401,Bangor,ME,172250.0,284500.0,109900.0
32.5,-85.5,231800.0,50693.0,14285.0,33201.0,36830,Auburn,AL,319950.0,370000.0,0.0
19.7,-155.2,305500.0,52822.0,16280.0,46165.0,96720,Hilo,HI,352500.0,625000.0,180000.0
33.94,-83.44,185400.0,39623.0,16955.0,40225.0,30606,Athens,GA,254000.0,439900.0,0.0
39.11,-84.61,120700.0,47251.0,18656.0,45760.0,45238,Cincinnati,OH,115000.0,0.0,99900.0
40.1,-80.6,102000.0,41248.0,18573.0,43002.0,26003,Wheeling,WV,133200.0,0.0,0.0
41.5,-81.47,152700.0,55969.0,17894.0,38282.0,44124,Lyndhurst,OH,167500.0,450000.0,88500.0
35.87,-78.54,171500.0,58311.0,15087.0,42294.0,27616,Raleigh,NC,235990.0,0.0,169900.0
33.68,-117.9,601000.0,77127.0,18535.0,49341.0,92626,Costa Mesa,CA,874900.0,1060000.0,0.0
41.54,-74.05,255000.0,56444.0,18381.0,54447.0,12550,Newburgh,NY,242000.0,0.0,200000.0
34.8,-80.7,111600.0,35092.0,17876.0,46041.0,29720,Lancaster,SC,272195.0,342990.0,97500.0
34.05,-118.29,392100.0,30961.0,18617.0,59185.0,90006,Los Angeles,CA,684500.0,0.0,0.0
38.58,-90.27,111500.0,40251.0,19282.0,43540.0,63116,Saint Louis,MO,120787.5,0.0,89000.0
40.84,-73.94,422100.0,41556.0,18975.0,53926.0,10033,New York,NY,699000.0,0.0,0.0
26.27,-80.26,204900.0,46993.0,17906.0,51921.0,33065,Coral Springs,FL,249900.0,424450.0,130250.0
36.23,-115.3,189900.0,65246.0,18831.0,51252.0,89129,Las Vegas,NV,319900.0,450000.0,209500.0
33.93,-117.62,376500.0,100452.0,15528.0,58763.0,92880,Eastvale,CA,558800.0,570000.0,0.0
34.71,-86.74,217200.0,90256.0,16254.0,41875.0,35758,Madison,AL,304900.0,0.0,0.0
32.93,-96.62,113000.0,54664.0,18164.0,59406.0,75040,Garland,TX,214850.0,0.0,159950.0
33.67,-116.28,348400.0,68107.0,14709.0,37262.0,92253,La Quinta,CA,615250.0,799000.0,265000.0
26.4,-98.1,72800.0,29878.0,14746.0,63293.0,78542,Edinburg,TX,173990.0,0.0,0.0
33.62,-111.95,354200.0,90718.0,18478.0,45801.0,85254,Phoenix,AZ,490000.0,539900.0,0.0
33.43,-111.72,124800.0,44469.0,17271.0,39858.0,85205,Mesa,AZ,262495.0,512000.0,185000.0
42.34,-88.11,157500.0,64086.0,18108.0,60002.0,60073,Round Lake Beach,IL,165000.0,0.0,127700.0
46.79,-96.84,215400.0,65445.0,11493.0,28322.0,58104,Fargo,ND,287000.0,376500.0,0.0
37.2,-76.7,316200.0,70196.0,17267.0,46370.0,23185,Williamsburg,VA,325000.0,425000.0,149900.0
30.0,-97.8,140000.0,64137.0,12944.0,42954.0,78640,Kyle,TX,235335.5,0.0,219875.0
40.0,-75.8,228600.0,67460.0,18993.0,52342.0,19320,Valley,PA,243700.0,364950.0,94900.0
34.84,-82.38,167900.0,48809.0,14768.0,34487.0,29607,Greenville,SC,263000.0,299700.0,0.0
30.09,-95.36,164900.0,82747.0,12149.0,36407.0,77386,Spring,TX,289145.0,371865.0,137685.0
39.92,-105.08,247400.0,77600.0,17341.0,46871.0,80020,Broomfield,CO,399900.0,599000.0,0.0
29.65,-98.51,279700.0,107479.0,14449.0,40586.0,78258,San Antonio,TX,381990.0,399999.0,0.0
28.1,-82.1,124800.0,51909.0,16718.0,44254.0,33810,Lakeland,FL,215900.0,279900.0,0.0
35.93,-78.72,296400.0,81187.0,17978.0,42690.0,27613,Raleigh,NC,429900.0,504999.0,0.0
39.09,-77.19,536700.0,107459.0,18088.0,46340.0,20850,Rockville,MD,540000.0,699500.0,0.0
35.15,-106.57,206100.0,44243.0,18450.0,40432.0,87109,Albuquerque,NM,250000.0,301500.0,0.0
38.89,-76.77,291700.0,91855.0,16354.0,43013.0,20774,Kettering,MD,365000.0,625000.0,233000.0
27.6,-82.5,123500.0,44571.0,15133.0,39457.0,34221,Palmetto,FL,262000.0,469745.0,168900.0
35.5,-78.8,197600.0,66512.0,14179.0,38894.0,27526,Fuquay Varina,NC,319700.0,378600.0,180000.0
39.27,-76.75,296400.0,76114.0,19099.0,47577.0,21228,Catonsville,MD,312000.0,463495.0,0.0
42.65,-82.93,200100.0,83313.0,17382.0,52289.0,48044,Macomb,MI,317995.0,344500.0,0.0
41.97,-87.76,271800.0,58086.0,20497.0,54093.0,60630,Chicago,IL,334900.0,399000.0,139900.0
47.63,-122.34,451400.0,77034.0,12419.0,20715.0,98109,Seattle,WA,650000.0,999000.0,0.0
36.11,-115.04,105700.0,45260.0,17309.0,45720.0,89122,Las Vegas,NV,237450.0,0.0,177900.0
32.77,-96.62,97400.0,47739.0,18691.0,56065.0,75149,Mesquite,TX,160000.0,0.0,150000.0
33.98,-118.21,289800.0,37651.0,18419.0,75066.0,90255,Huntington Park,CA,419995.0,0.0,0.0
32.2,-95.3,177800.0,52011.0,16238.0,37166.0,75703,Tyler,TX,299500.0,335500.0,0.0
40.67,-73.77,371900.0,59229.0,20244.0,59129.0,11434,New York,NY,519000.0,0.0,0.0
37.3,-76.7,319200.0,72070.0,15762.0,38733.0,23188,Williamsburg,VA,342000.0,429997.5,164900.0
42.3,-85.7,173800.0,53172.0,17551.0,42362.0,49009,Oshtemo,MI,287000.0,314900.0,0.0
34.21,-79.82,151100.0,47202.0,17491.0,43220.0,29501,Florence,SC,219900.0,269990.0,0.0
25.66,-80.36,308200.0,60472.0,18416.0,50170.0,33176,Kendall,FL,499000.0,637000.0,169500.0
32.83,-97.01,114900.0,40084.0,17976.0,53442.0,75061,Irving,TX,245000.0,0.0,0.0
40.01,-76.25,161000.0,42364.0,19222.0,52452.0,17602,Lancaster,PA,189900.0,349900.0,118000.0
39.33,-76.71,195000.0,51179.0,18753.0,48133.0,21207,Lochearn,MD,195250.0,0.0,149450.0
28.01,-82.5,114600.0,35098.0,18346.0,46449.0,33614,Egypt Lake-Leto,FL,200000.0,0.0,0.0
33.1,-96.73,253700.0,104168.0,18134.0,50926.0,75025,Plano,TX,369000.0,399450.0,0.0
26.02,-80.15,148200.0,34473.0,18639.0,41329.0,33020,Hollywood,FL,249900.0,450000.0,109450.0
33.82,-116.47,179400.0,44440.0,17019.0,51151.0,92234,Cathedral City,CA,315000.0,549300.0,229000.0
47.72,-122.3,372000.0,53044.0,17169.0,37081.0,98125,Seattle,WA,600000.0,815000.0,0.0
29.5,-98.67,122800.0,60726.0,18635.0,54903.0,78250,San Antonio,TX,184900.0,0.0,137700.0
44.77,-93.28,207400.0,65372.0,17879.0,44356.0,55337,Burnsville,MN,265000.0,0.0,183550.0
44.96,-123.0,150100.0,37006.0,18179.0,53518.0,97301,Salem,OR,231375.0,0.0,200000.0
42.3,-122.9,169800.0,36051.0,16416.0,42117.0,97501,Medford,OR,269000.0,575000.0,200000.0
30.43,-91.02,170000.0,50057.0,18520.0,43194.0,70816,Baton Rouge,LA,184900.0,300000.0,99450.0
35.2,-97.5,191700.0,56759.0,16263.0,42797.0,73072,Norman,OK,289500.0,342140.0,0.0
39.61,-105.06,264000.0,72508.0,18609.0,44795.0,80123,Denver,CO,425250.0,760000.0,285000.0
45.64,-122.63,193500.0,39665.0,17174.0,41740.0,98661,Vancouver,WA,320000.0,0.0,285000.0
34.1,-117.66,330100.0,51805.0,18087.0,51165.0,91786,Upland,CA,485000.0,539375.0,0.0
26.28,-98.23,132100.0,61277.0,15595.0,48703.0,78504,McAllen,TX,222900.0,0.0,0.0
40.1,-83.06,209700.0,64666.0,17030.0,38493.0,43235,Columbus,OH,270000.0,367000.0,0.0
39.1,-86.4,207900.0,45415.0,17562.0,41011.0,47401,Bloomington,IN,299900.0,399000.0,94900.0
36.0,-94.1,164300.0,37006.0,15320.0,39782.0,72701,Fayetteville,AR,334500.0,435000.0,0.0
30.53,-97.72,213300.0,92453.0,17220.0,50606.0,78681,Round Rock,TX,329990.0,450000.0,217500.0
35.4,-119.12,234900.0,90495.0,18470.0,56741.0,93312,Bakersfield,CA,295250.0,324000.0,0.0
35.09,-106.51,178700.0,45967.0,19115.0,43584.0,87112,Albuquerque,NM,187746.5,319500.0,149000.0
32.84,-80.11,207400.0,63805.0,14140.0,31883.0,29414,Charleston,SC,292000.0,448615.0,175500.0
43.5,-96.83,158000.0,56104.0,16340.0,39852.0,57106,Sioux Falls,SD,224900.0,0.0,0.0
38.75,-76.98,299300.0,90248.0,18037.0,50722.0,20744,Fort Washington,MD,319999.5,0.0,268900.0
38.91,-104.78,210500.0,61012.0,18142.0,45467.0,80918,Colorado Springs,CO,310000.0,485747.0,0.0
39.94,-75.16,305800.0,60400.0,17213.0,36228.0,19147,Philadelphia,PA,449900.0,515000.0,0.0
40.04,-75.07,129300.0,36906.0,18992.0,55006.0,19149,Philadelphia,PA,164950.0,0.0,139999.5
34.27,-119.22,433300.0,67860.0,19128.0,50474.0,93003,Ventura,CA,559500.0,865000.0,389000.0
32.97,-96.74,183400.0,60440.0,17869.0,44009.0,75080,Richardson,TX,359950.0,432400.0,0.0
21.46,-157.99,541500.0,92309.0,18124.0,54129.0,96789,Mililani,HI,529500.0,0.0,405000.0
34.07,-118.43,963400.0,54373.0,17903.0,47452.0,90024,Los Angeles,CA,1607000.0,0.0,0.0
40.32,-79.72,159300.0,66267.0,18418.0,45286.0,15642,North Huntingdon,PA,192400.0,308445.0,0.0
38.16,-85.79,121000.0,39447.0,18573.0,45291.0,40214,Louisville,KY,147900.0,325000.0,85800.0
38.4,-77.4,323100.0,103818.0,16325.0,51463.0,22554,Stafford,VA,400000.0,619900.0,279900.0
36.7,-76.6,217500.0,54802.0,17510.0,47670.0,23434,Suffolk,VA,279000.0,349949.5,120000.0
33.3,-112.4,153300.0,67132.0,13341.0,41115.0,85338,Goodyear,AZ,278000.0,398900.0,199999.0
39.77,-89.69,127900.0,51502.0,19019.0,39831.0,62704,Springfield,IL,129900.0,249950.0,68500.0
35.1,-89.6,275500.0,99256.0,16986.0,48642.0,38017,Collierville,TN,468000.0,472040.5,0.0
44.6,-93.3,279200.0,99243.0,15700.0,47218.0,55044,Lakeville,MN,431150.0,450000.0,0.0
41.7,-87.66,179300.0,61799.0,18004.0,49952.0,60643,Chicago,IL,175000.0,399000.0,97192.5
29.66,-95.73,165800.0,85219.0,9074.0,28595.0,77407,Richmond,TX,313997.5,364500.0,0.0
28.31,-81.43,100700.0,32822.0,14840.0,40828.0,34741,Kissimmee,FL,195000.0,372450.0,125000.0
29.74,-95.56,211900.0,46159.0,17634.0,36385.0,77042,Houston,TX,360000.0,499000.0,77500.0
29.98,-90.16,210300.0,47075.0,17543.0,37996.0,70001,Metairie,LA,263000.0,369900.0,0.0
42.85,-73.79,260300.0,80908.0,17086.0,41776.0,12065,Clifton Park,NY,336900.0,379950.0,159900.0
39.7,-104.84,163300.0,40989.0,18115.0,46665.0,80012,Aurora,CO,265900.0,0.0,229500.0
39.8,-84.9,90000.0,35108.0,19077.0,46875.0,47374,Richmond,IN,88500.0,0.0,0.0
33.5,-83.9,116800.0,51550.0,17167.0,51140.0,30016,Covington,GA,179000.0,359950.0,138900.0
36.0,-79.5,152700.0,43635.0,17069.0,38807.0,27215,Burlington,NC,242427.0,279430.0,0.0
28.14,-80.64,111000.0,40828.0,17733.0,39082.0,32935,Melbourne,FL,176000.0,0.0,0.0
45.45,-122.8,303800.0,64519.0,18520.0,46699.0,97223,Tigard,OR,450000.0,575000.0,309900.0
38.81,-90.36,111100.0,55260.0,19004.0,48212.0,63031,Florissant,MO,99500.0,0.0,86900.0
43.07,-78.82,118900.0,52587.0,19046.0,45100.0,14120,North Tonawanda,NY,154900.0,0.0,99900.0
33.23,-111.9,266400.0,68291.0,14147.0,29821.0,85248,Chandler,AZ,374750.0,435000.0,0.0
29.53,-98.48,150600.0,41792.0,18349.0,40267.0,78216,San Antonio,TX,249900.0,349000.0,0.0
29.74,-95.52,176600.0,49873.0,17234.0,34299.0,77063,Houston,TX,310000.0,376600.0,102497.5
18.4,-66.68,0.0,0.0,26038.0,67010.0,00612,Thoreau,NM,88950.0,0.0,0.0
31.0,-97.8,122800.0,52400.0,15542.0,44490.0,76549,Killeen,TX,145000.0,229900.0,89900.0
40.58,-73.99,317800.0,27481.0,19774.0,47621.0,11224,New York,NY,475000.0,0.0,0.0
33.25,-117.29,341000.0,64004.0,17768.0,54096.0,92057,Oceanside,CA,494682.5,0.0,369450.0
42.6,-89.1,98100.0,40851.0,18580.0,48929.0,53511,Beloit,WI,114900.0,0.0,0.0
31.6,-106.1,111800.0,48251.0,13243.0,49544.0,79928,Horizon City,TX,174900.0,189000.0,0.0
36.24,-115.05,80100.0,33496.0,17496.0,58794.0,89115,Las Vegas,NV,189949.5,0.0,175000.0
44.94,-93.05,138400.0,42686.0,17609.0,52730.0,55106,Saint Paul,MN,179900.0,0.0,174900.0
29.71,-95.48,217100.0,26741.0,16569.0,47860.0,77081,Houston,TX,426000.0,490000.0,0.0
26.14,-80.27,117300.0,46006.0,17441.0,37858.0,33322,Sunrise,FL,155000.0,459250.0,79999.0
32.66,-97.38,106800.0,51123.0,18397.0,48394.0,76133,Fort Worth,TX,188500.0,0.0,167000.0
40.69,-74.27,329100.0,77393.0,18313.0,53053.0,07083,Union,NJ,346500.0,0.0,280196.0
40.55,-80.05,176400.0,69103.0,17807.0,41895.0,15237,Ross,PA,250000.0,298950.0,0.0
39.5,-119.75,152200.0,33258.0,16975.0,43566.0,89502,Reno,NV,304900.0,0.0,212450.0
40.6,-73.76,448200.0,39409.0,19518.0,60035.0,11691,New York,NY,410000.0,0.0,0.0
32.9,-111.8,106600.0,44910.0,18195.0,50942.0,85122,Casa Grande,AZ,192000.0,0.0,174900.0
37.7,-97.44,135000.0,57248.0,18372.0,44707.0,67212,Wichita,KS,152000.0,202500.0,0.0
40.89,-74.05,299100.0,54091.0,18142.0,43010.0,07601,Hackensack,NJ,292500.0,0.0,239900.0
37.0,-121.5,463000.0,81037.0,16771.0,57349.0,95020,Gilroy,CA,823950.0,0.0,749350.0
33.71,-117.95,604100.0,80619.0,18861.0,56004.0,92708,Fountain Valley,CA,799000.0,934950.0,0.0
38.74,-90.26,77100.0,31051.0,18376.0,48560.0,63136,Jennings,MO,39900.0,0.0,37900.0
33.32,-111.88,171200.0,62263.0,17436.0,42796.0,85224,Chandler,AZ,261950.0,398900.0,182250.0
25.85,-80.37,291400.0,72704.0,12973.0,39489.0,33178,Doral,FL,395000.0,520000.0,0.0
41.65,-83.67,102900.0,38409.0,17935.0,39441.0,43615,Toledo,OH,115000.0,259450.0,59900.0
44.1,-103.2,130100.0,39611.0,17938.0,43462.0,57701,Rapid City,SD,209900.0,337500.0,144900.0
40.57,-74.13,450200.0,75807.0,20856.0,55909.0,10306,New York,NY,572499.5,682500.0,0.0
26.25,-80.09,278000.0,55938.0,13673.0,23948.0,33062,Pompano Beach,FL,399000.0,639900.0,169700.0
25.78,-80.24,174500.0,24296.0,18389.0,52677.0,33125,Miami,FL,300000.0,0.0,0.0
36.2,-94.0,130600.0,37637.0,16126.0,50230.0,72764,Springdale,AR,220500.0,0.0,120200.0
35.9,-80.1,114700.0,39503.0,18126.0,46084.0,27360,Thomasville,NC,137750.0,239900.0,75000.0
40.95,-74.24,462300.0,103170.0,19127.0,54717.0,07470,Wayne,NJ,479900.0,699000.0,249900.0
28.23,-82.63,175900.0,55651.0,16036.0,38464.0,34655,New Port Richey,FL,274900.0,362200.0,0.0
25.48,-80.41,126000.0,44817.0,14098.0,49028.0,33033,Homestead,FL,259900.0,0.0,172000.0
32.2,-80.9,232500.0,57665.0,12171.0,33954.0,29910,Bluffton,SC,369900.0,699000.0,193950.0
35.58,-97.57,146300.0,43263.0,17446.0,34824.0,73120,Oklahoma City,OK,214999.5,385000.0,0.0
36.06,-83.91,138800.0,46944.0,17314.0,42835.0,37918,Knoxville,TN,200617.5,284900.0,84084.0
40.0,-75.7,317300.0,91997.0,17193.0,46984.0,19335,East Brandywine,PA,383995.0,455000.0,0.0
30.19,-92.08,162800.0,43491.0,17826.0,41163.0,70506,Lafayette,LA,169900.0,238000.0,0.0
35.9,-78.63,268600.0,78335.0,17706.0,42166.0,27615,Raleigh,NC,361950.0,517450.0,0.0
39.88,-82.96,88900.0,39348.0,17579.0,45144.0,43207,Columbus,OH,124900.0,0.0,97700.0
33.67,-112.36,183700.0,47408.0,16342.0,27703.0,85375,Sun City West,AZ,260000.0,417000.0,189500.0
39.96,-74.92,255900.0,86363.0,17538.0,41864.0,08054,Mt Laurel,NJ,239900.0,399999.0,131950.0
38.3,-84.6,160900.0,62548.0,15211.0,41342.0,40324,Georgetown,KY,225700.0,336855.0,0.0
33.5,-111.4,180800.0,62059.0,16738.0,44744.0,85207,Mesa,AZ,345000.0,549900.0,0.0
33.1,-87.6,161800.0,46433.0,15865.0,37661.0,35405,Tuscaloosa,AL,189900.0,259900.0,0.0
41.51,-87.6,111400.0,41537.0,18935.0,58136.0,60411,Chicago Heights,IL,83000.0,0.0,72000.0
28.0,-82.58,131200.0,47903.0,17099.0,43453.0,33615,Town 'n' Country,FL,235000.0,449950.0,0.0
39.83,-84.01,115400.0,43020.0,16648.0,40529.0,45324,Fairborn,OH,121200.0,222900.0,66008.0
34.29,-118.69,423400.0,84216.0,18650.0,54366.0,93063,Simi Valley,CA,599000.0,884900.0,439900.0
47.31,-122.31,221600.0,45894.0,17250.0,44151.0,98003,Federal Way,WA,332475.0,0.0,244950.0
39.2,-96.6,164400.0,38545.0,17984.0,43850.0,66502,Manhattan,KS,185000.0,269950.0,124000.0
45.3,-93.4,199900.0,68130.0,16953.0,46352.0,55303,Ramsey,MN,298990.0,399450.0,194900.0
36.3,-119.38,169800.0,50066.0,18341.0,50607.0,93277,Visalia,CA,240000.0,322000.0,0.0
30.27,-81.58,136500.0,48276.0,14491.0,34876.0,32216,Jacksonville,FL,174300.0,0.0,129900.0
39.3,-84.6,146200.0,56054.0,17954.0,43917.0,45014,Fairfield,OH,169900.0,0.0,0.0
33.9,-117.0,207700.0,65692.0,14532.0,43605.0,92223,Beaumont,CA,358900.0,499925.0,269500.0
34.9,-80.7,316700.0,93297.0,14081.0,45097.0,28173,Waxhaw,NC,414350.0,449900.0,0.0
37.15,-93.25,139900.0,40744.0,17318.0,36801.0,65804,Springfield,MO,196450.0,299900.0,0.0
42.73,-71.19,278900.0,67556.0,17528.0,47249.0,01844,Methuen,MA,380000.0,0.0,299721.0
32.81,-96.82,247400.0,59650.0,12384.0,22124.0,75219,Dallas,TX,419900.0,625000.0,0.0
29.8,-90.7,140100.0,50428.0,16251.0,43037.0,70301,Thibodaux,LA,226167.5,258900.0,0.0
29.57,-98.41,142500.0,65921.0,17809.0,49176.0,78247,San Antonio,TX,220000.0,296990.0,0.0
39.92,-82.88,100000.0,37971.0,17183.0,42201.0,43232,Columbus,OH,115000.0,0.0,106931.5
21.45,-157.84,622100.0,85608.0,17147.0,54247.0,96744,Kaneohe,HI,780000.0,1250000.0,0.0
36.5,-82.6,116300.0,34323.0,17649.0,40038.0,37660,Kingsport,TN,155000.0,279000.0,64900.0
42.1,-76.1,119000.0,50420.0,19290.0,44264.0,13760,Union,NY,127500.0,209000.0,59950.0
35.0,-106.7,131400.0,36883.0,19562.0,57680.0,87105,South Valley,NM,165000.0,330000.0,117500.0
34.23,-118.44,279100.0,40186.0,18194.0,69817.0,91402,Los Angeles,CA,469000.0,0.0,0.0
33.64,-86.7,106000.0,41762.0,17891.0,46951.0,35215,Birmingham,AL,87640.0,0.0,0.0
44.4,-88.1,184000.0,62172.0,15709.0,41178.0,54115,De Pere,WI,269900.0,309900.0,0.0
35.85,-78.72,284500.0,69237.0,16708.0,35028.0,27612,Raleigh,NC,395000.0,574900.0,0.0
42.7,-78.8,151900.0,62497.0,17368.0,41937.0,14075,Hamburg,NY,184900.0,289000.0,0.0
39.66,-104.85,174200.0,46073.0,17459.0,36710.0,80014,Aurora,CO,285000.0,0.0,249950.0
35.82,-78.56,161700.0,50373.0,16956.0,42204.0,27604,Raleigh,NC,219900.0,0.0,159950.0
35.23,-97.42,126500.0,44654.0,15293.0,36711.0,73071,Norman,OK,200000.0,276485.0,0.0
33.53,-84.33,122800.0,40107.0,16484.0,46434.0,30236,Jonesboro,GA,179000.0,399900.0,0.0
31.3,-89.3,91000.0,27342.0,17387.0,43366.0,39401,Hattiesburg,MS,110000.0,303250.0,73700.0
33.04,-96.67,145400.0,54518.0,15170.0,44622.0,75074,Plano,TX,279995.0,405000.0,0.0
33.37,-111.94,189100.0,53022.0,17965.0,44813.0,85283,Tempe,AZ,282495.0,405000.0,175000.0
40.85,-73.97,338000.0,71949.0,16368.0,35353.0,07024,Fort Lee,NJ,472621.0,875000.0,195000.0
29.52,-95.19,184300.0,98442.0,16614.0,47636.0,77546,Friendswood,TX,340000.0,484495.0,120000.0
38.93,-77.39,545700.0,141433.0,16256.0,45887.0,20171,Herndon,VA,580000.0,659990.0,0.0
41.4,-76.9,120800.0,37456.0,18272.0,44661.0,17701,Williamsport,PA,142900.0,244400.0,89300.0
36.86,-119.76,266300.0,75200.0,17368.0,45191.0,93720,Fresno,CA,330000.0,375000.0,0.0
34.13,-77.92,196300.0,50654.0,15744.0,35573.0,28412,Wilmington,NC,275000.0,396750.0,152450.0
28.05,-82.45,113500.0,28474.0,17612.0,44601.0,33612,Tampa,FL,169000.0,0.0,0.0
33.97,-117.33,232800.0,39465.0,17992.0,58002.0,92507,Riverside,CA,396000.0,478500.0,249000.0
40.7,-122.3,227000.0,45722.0,18128.0,44461.0,96003,Redding,CA,309450.0,425000.0,0.0
40.56,-105.13,238500.0,57121.0,18007.0,44183.0,80526,Fort Collins,CO,382000.0,559500.0,259000.0
43.1,-73.8,274400.0,67979.0,15618.0,36915.0,12866,Saratoga Springs,NY,455000.0,499900.0,0.0
35.6,-106.1,211500.0,44081.0,17207.0,45890.0,87507,Santa Fe,NM,310000.0,592500.0,244900.0
42.66,-83.12,188100.0,66263.0,17137.0,41369.0,48307,Rochester Hills,MI,329350.0,382400.0,0.0
34.17,-118.62,552000.0,76548.0,16697.0,39499.0,91367,Los Angeles,CA,699900.0,1199000.0,448000.0
39.21,-94.58,136200.0,49994.0,17226.0,40191.0,64118,Gladstone,MO,164950.0,0.0,115000.0
42.99,-78.88,106500.0,51852.0,18637.0,41676.0,14150,Tonawanda,NY,139900.0,0.0,100000.0
35.6,-82.6,161900.0,41548.0,16257.0,38550.0,28806,Asheville,NC,307275.0,399000.0,0.0
29.48,-81.22,157000.0,46405.0,15844.0,41616.0,32164,Palm Coast,FL,224000.0,289900.0,159900.0
36.28,-95.81,168800.0,69181.0,14110.0,38680.0,74055,Owasso,OK,242500.0,295000.0,0.0
32.72,-97.08,82600.0,31108.0,17535.0,55706.0,76010,Arlington,TX,149325.0,0.0,144900.0
41.46,-72.81,269900.0,75289.0,18068.0,45241.0,06492,Wallingford,CT,249900.0,399900.0,140250.0
45.01,-93.16,223800.0,61113.0,17114.0,38994.0,55113,Roseville,MN,280000.0,0.0,0.0
33.9,-79.0,149900.0,41108.0,14737.0,39033.0,29526,Conway,SC,200450.0,324900.0,123900.0
39.85,-74.91,280400.0,92344.0,17620.0,45538.0,08053,Evesham,NJ,268999.5,395000.0,139500.0
34.9,-82.2,145900.0,49217.0,16075.0,42844.0,29651,Greer,SC,249900.0,291990.0,0.0
35.33,-80.74,148600.0,44481.0,14012.0,37547.0,28262,Charlotte,NC,199900.0,0.0,0.0
37.15,-76.55,204800.0,55319.0,16506.0,42917.0,23608,Newport News,VA,190000.0,0.0,145000.0
44.96,-93.17,195500.0,44629.0,17136.0,43248.0,55104,Saint Paul,MN,242500.0,0.0,179900.0
35.1,-80.5,165500.0,57002.0,17317.0,50365.0,28110,Monroe,NC,255000.0,359900.0,0.0
35.8,-78.8,267600.0,85546.0,16228.0,40755.0,27513,Cary,NC,349990.0,459400.0,0.0
28.04,-82.39,135400.0,37323.0,17313.0,41443.0,33617,Temple Terrace,FL,174949.5,369450.0,105000.0
40.57,-75.48,167500.0,48289.0,17779.0,45336.0,18103,Allentown,PA,169900.0,389900.0,124900.0
47.2,-122.2,268000.0,83560.0,15325.0,44309.0,98391,Bonney Lake,WA,439950.0,743950.0,329000.0
32.72,-116.99,296400.0,59849.0,18190.0,58368.0,91977,Spring Valley,CA,469900.0,0.0,443000.0
34.22,-77.87,237800.0,34356.0,15800.0,36063.0,28403,Wilmington,NC,250000.0,464500.0,129900.0
38.52,-121.53,326400.0,68461.0,17974.0,41321.0,95831,Sacramento,CA,449925.0,0.0,0.0
43.76,-87.71,116800.0,42333.0,17827.0,43129.0,53081,Sheboygan,WI,129900.0,0.0,0.0
36.3,-86.3,170800.0,47594.0,15586.0,41132.0,37087,Lebanon,TN,334900.0,429665.0,0.0
34.15,-117.15,235500.0,62198.0,16874.0,54923.0,92346,Highland,CA,356000.0,527450.0,265000.0
33.51,-112.03,194400.0,46233.0,15969.0,33896.0,85016,Phoenix,AZ,392000.0,525000.0,169450.0
39.85,-104.95,149000.0,47403.0,16965.0,49598.0,80229,Thornton,CO,314900.0,0.0,295000.0
28.39,-81.44,185600.0,55443.0,17512.0,51219.0,32837,Orlando,FL,278150.0,357450.0,0.0
38.0,-121.32,162000.0,39301.0,17590.0,47965.0,95207,Stockton,CA,275000.0,0.0,237500.0
35.57,-80.89,353200.0,78026.0,13322.0,35454.0,28117,Mooresville,NC,420000.0,499000.0,0.0
32.8,-117.2,1000001.0,99367.0,17512.0,46781.0,92037,San Diego,CA,2295000.0,2497000.0,0.0
29.56,-98.37,110400.0,54399.0,16380.0,43710.0,78233,San Antonio,TX,168000.0,0.0,133500.0
28.29,-81.32,143100.0,45589.0,14415.0,44142.0,34744,Kissimmee,FL,264900.0,345000.0,0.0
34.6,-120.4,257500.0,52032.0,17648.0,54017.0,93436,Lompoc,CA,360000.0,0.0,349000.0
39.95,-75.17,428400.0,63709.0,14776.0,21908.0,19103,Philadelphia,PA,450000.0,599900.0,0.0
29.69,-95.59,94100.0,35462.0,17030.0,56526.0,77072,Houston,TX,148900.0,0.0,125000.0
40.87,-73.85,427100.0,57776.0,22554.0,66631.0,10469,New York,NY,489999.0,0.0,0.0
32.92,-96.98,278200.0,69114.0,15685.0,35090.0,75063,Irving,TX,469463.0,505900.0,0.0
36.06,-86.96,222100.0,68473.0,16351.0,36610.0,37221,Nashville,TN,329450.0,439700.0,0.0
40.9,-79.9,135100.0,43968.0,17499.0,40371.0,16001,Butler,PA,149950.0,279950.0,69250.0
43.01,-87.94,119000.0,33837.0,19223.0,60953.0,53215,Milwaukee,WI,109900.0,0.0,106219.0
34.09,-118.5,1000001.0,110854.0,16657.0,35482.0,90049,Los Angeles,CA,3195000.0,3572500.0,0.0
40.1,-83.14,247400.0,86446.0,12622.0,31306.0,43016,Dublin,OH,379900.0,439900.0,0.0
44.6,-123.3,284100.0,42955.0,17600.0,41472.0,97330,Corvallis,OR,379900.0,549900.0,0.0
37.8,-87.3,108800.0,44849.0,17705.0,42440.0,42301,Owensboro,KY,189900.0,229900.0,0.0
33.08,-96.81,289300.0,88707.0,15370.0,36039.0,75024,Plano,TX,500000.0,528000.0,0.0
33.9,-81.2,125500.0,52158.0,15405.0,40775.0,29073,Lexington,SC,184176.0,234900.0,0.0
31.0,-97.7,142300.0,57884.0,14409.0,40025.0,76542,Killeen,TX,181400.0,221100.0,0.0
42.13,-83.22,123500.0,56594.0,17594.0,43182.0,48183,Trenton,MI,155000.0,0.0,74900.0
34.2,-118.49,361600.0,49231.0,17042.0,51558.0,91406,Los Angeles,CA,579950.0,0.0,400000.0
33.71,-116.41,297500.0,49446.0,15037.0,31753.0,92260,Palm Desert,CA,448450.0,714000.0,249900.0
41.84,-87.76,157200.0,44177.0,22758.0,84573.0,60804,Cicero,IL,195000.0,0.0,135000.0
40.8,-82.0,134700.0,45997.0,17441.0,43753.0,44691,Wooster,OH,159900.0,269950.0,65000.0
29.8,-95.42,292200.0,70293.0,14878.0,30482.0,77008,Houston,TX,477000.0,484000.0,0.0
38.56,-121.82,538200.0,44741.0,17229.0,47032.0,95616,Davis,CA,680000.0,750000.0,0.0
34.05,-117.72,255600.0,49725.0,17708.0,71599.0,91766,Pomona,CA,430000.0,0.0,399493.5
33.91,-84.18,116600.0,35037.0,16766.0,53351.0,30093,Norcross,GA,164450.0,0.0,135000.0
36.0,-80.2,130500.0,38265.0,16982.0,46963.0,27107,Winston-Salem,NC,145000.0,277527.5,0.0
40.55,-74.18,467300.0,85324.0,21018.0,59304.0,10312,New York,NY,622000.0,748000.0,0.0
42.43,-83.19,59900.0,28897.0,17572.0,45063.0,48235,Detroit,MI,48000.0,0.0,46333.5
37.36,-79.21,154400.0,44340.0,16010.0,43426.0,24502,Lynchburg,VA,169000.0,239000.0,94900.0
33.83,-118.39,838600.0,97158.0,16910.0,35293.0,90277,Redondo Beach,CA,1249000.0,1399000.0,0.0
30.54,-97.65,186900.0,85907.0,12056.0,35985.0,78665,Round Rock,TX,299000.0,430000.0,234990.0
33.05,-96.73,173900.0,74777.0,17801.0,45452.0,75023,Plano,TX,309000.0,400000.0,0.0
34.09,-117.97,285500.0,51232.0,17504.0,76571.0,91706,Baldwin Park,CA,449800.0,0.0,429999.5
33.85,-117.96,335400.0,47715.0,17515.0,62068.0,92801,Anaheim,CA,539500.0,0.0,438000.0
28.9,-81.25,127300.0,45059.0,16576.0,44905.0,32725,Deltona,FL,188500.0,0.0,132250.0
39.84,-86.05,84900.0,34368.0,17563.0,43904.0,46226,Indianapolis,IN,84950.0,0.0,68000.0
25.8,-80.23,117000.0,22260.0,17417.0,52606.0,33142,Miami,FL,215950.0,0.0,140000.0
34.03,-117.93,285900.0,57291.0,18648.0,85040.0,91744,La Puente,CA,480000.0,0.0,465000.0
34.2,-117.1,154400.0,37175.0,17369.0,58271.0,92404,San Bernardino,CA,290000.0,0.0,259999.0
43.6,-84.8,124700.0,31645.0,17783.0,50025.0,48858,Mount Pleasant,MI,159950.0,0.0,0.0
38.9,-92.2,154600.0,30468.0,14255.0,39417.0,65201,Columbia,MO,297450.0,369900.0,0.0
40.4,-105.2,215700.0,52171.0,15741.0,38821.0,80537,Loveland,CO,389950.0,634000.0,308000.0
34.07,-118.31,511800.0,38510.0,16514.0,38967.0,90020,Los Angeles,CA,659500.0,0.0,0.0
40.04,-82.96,90900.0,33598.0,16100.0,38699.0,43224,Columbus,OH,99899.0,0.0,94250.0
38.49,-121.4,154100.0,46820.0,17168.0,57862.0,95828,Florin,CA,299900.0,0.0,279000.0
26.66,-80.13,85300.0,35248.0,16512.0,44963.0,33415,Greenacres,FL,169900.0,0.0,119900.0
48.06,-122.16,242100.0,65130.0,16219.0,45899.0,98270,Marysville,WA,375000.0,0.0,349000.0
25.96,-80.14,328300.0,68317.0,14197.0,30840.0,33180,Aventura,FL,410000.0,625000.0,176500.0
40.15,-75.38,275600.0,76178.0,17548.0,44260.0,19403,West Norriton,PA,289900.0,385000.0,138000.0
42.4,-83.5,233000.0,80120.0,16941.0,39963.0,48170,Plymouth,MI,367445.0,449900.0,0.0
35.05,-106.48,170100.0,44159.0,17369.0,41468.0,87123,Albuquerque,NM,217900.0,315000.0,139900.0
45.08,-93.19,209700.0,64763.0,16873.0,43250.0,55112,New Brighton,MN,279900.0,0.0,0.0
33.74,-117.82,456900.0,64680.0,18508.0,57741.0,92780,Tustin,CA,692500.0,0.0,420000.0
41.56,-88.12,159100.0,53691.0,18409.0,48899.0,60435,Joliet,IL,164900.0,0.0,137500.0
39.65,-79.95,174400.0,27264.0,16422.0,38772.0,26505,Morgantown,WV,198000.0,309000.0,0.0
40.4,-74.7,571300.0,125439.0,17176.0,47115.0,08540,Princeton,NJ,679000.0,0.0,0.0
40.71,-73.24,329200.0,75775.0,19005.0,62543.0,11706,Islip,NY,354500.0,0.0,265000.0
32.21,-110.89,145600.0,32557.0,17470.0,41251.0,85711,Tucson,AZ,184997.5,349900.0,145000.0
40.5,-80.19,163600.0,63277.0,16749.0,40153.0,15108,Moon,PA,229500.0,309900.0,0.0
42.2,-83.5,125400.0,52054.0,17062.0,42313.0,48111,Van Buren,MI,210000.0,310330.0,0.0
48.8,-122.5,291000.0,55952.0,16520.0,41235.0,98226,Bellingham,WA,414900.0,675000.0,268000.0
42.52,-70.91,304400.0,55698.0,17781.0,41109.0,01970,Salem,MA,366950.0,0.0,299900.0
39.28,-76.69,136100.0,45055.0,17815.0,45213.0,21229,Baltimore,MD,114900.0,0.0,96450.0
33.93,-84.62,223200.0,74603.0,17208.0,46076.0,30064,Marietta,GA,356288.0,450000.0,0.0
35.11,-106.58,182300.0,49664.0,17814.0,38587.0,87110,Albuquerque,NM,206000.0,295000.0,134900.0
36.4,-119.38,216400.0,52546.0,15310.0,52849.0,93291,Visalia,CA,328400.0,349900.0,0.0
37.99,-84.37,205400.0,66806.0,13708.0,32364.0,40509,Lexington,KY,319900.0,350830.5,0.0
28.2,-80.8,200700.0,73084.0,13771.0,31999.0,32940,Melbourne,FL,328900.0,389450.0,0.0
44.8,-91.5,133700.0,44557.0,17262.0,42272.0,54703,Eau Claire,WI,179450.0,240400.0,104950.0
40.68,-73.46,446600.0,104986.0,18314.0,53804.0,11758,Massapequa,NY,559000.0,734000.0,0.0
41.82,-87.69,177800.0,38545.0,24093.0,91326.0,60632,Chicago,IL,212450.0,0.0,134900.0
41.23,-81.84,162800.0,65113.0,16444.0,43548.0,44212,Brunswick,OH,208450.0,264500.0,0.0
39.39,-74.45,203300.0,29200.0,15502.0,39554.0,08401,Atlantic City,NJ,130000.0,399450.0,79999.0
41.9,-91.7,120500.0,45973.0,16188.0,37796.0,52404,Cedar Rapids,IA,157750.0,299950.0,89750.0
37.83,-122.22,811100.0,104967.0,16923.0,36565.0,94611,Oakland,CA,1196500.0,0.0,0.0
39.2,-76.88,382800.0,98478.0,17490.0,41704.0,21044,Columbia,MD,339900.0,525000.0,0.0
40.39,-111.85,240800.0,73409.0,12837.0,49030.0,84043,Lehi,UT,349437.5,524950.0,237000.0
42.56,-90.69,118800.0,42611.0,17470.0,43173.0,52001,Dubuque,IA,155000.0,0.0,102000.0
37.0,-122.1,673400.0,62879.0,18305.0,46377.0,95060,Santa Cruz,CA,989000.0,1496500.0,0.0
30.35,-91.07,219800.0,73894.0,15205.0,37980.0,70810,Baton Rouge,LA,331500.0,489900.0,0.0
32.8,-114.5,119800.0,51947.0,16525.0,46558.0,85365,Yuma,AZ,229500.0,275535.5,0.0
39.5,-80.1,101400.0,42489.0,17585.0,41369.0,26554,Fairmont,WV,136700.0,209750.0,43950.0
40.84,-73.84,454700.0,52347.0,19772.0,50502.0,10461,New York,NY,509000.0,0.0,0.0
45.48,-122.64,357200.0,55212.0,17555.0,38762.0,97202,Portland,OR,534900.0,679900.0,0.0
32.77,-96.69,86200.0,37720.0,16304.0,55029.0,75227,Dallas,TX,174900.0,0.0,138250.0
37.3,-93.3,96600.0,33756.0,16938.0,40902.0,65803,Springfield,MO,87304.0,289900.0,67438.0
41.4,-82.7,109400.0,40944.0,17205.0,41030.0,44870,Sandusky,OH,135000.0,299000.0,56900.0
33.65,-112.25,192800.0,64428.0,16643.0,40454.0,85382,Peoria,AZ,274950.0,389900.0,0.0
29.77,-95.16,92200.0,44167.0,16440.0,53621.0,77015,Houston,TX,149942.5,0.0,130000.0
34.12,-84.01,175200.0,63843.0,15468.0,45211.0,30518,Sugar Hill,GA,321824.0,403490.0,0.0
34.8,-84.9,107600.0,35507.0,17376.0,53601.0,30721,Dalton,GA,134900.0,0.0,0.0
40.73,-96.64,194000.0,78238.0,15284.0,38956.0,68516,Lincoln,NE,328250.0,349900.0,0.0
33.56,-82.16,226400.0,86628.0,13248.0,38168.0,30809,Evans,GA,285000.0,299450.0,0.0
29.6,-97.9,114400.0,49399.0,16133.0,45341.0,78155,Seguin,TX,295000.0,346900.0,0.0
38.66,-121.26,332200.0,73720.0,16360.0,40196.0,95628,Fair Oaks,CA,475000.0,649900.0,0.0
34.2,-117.4,192300.0,51471.0,15519.0,56689.0,92407,San Bernardino,CA,345000.0,500679.5,264900.0
28.7,-81.5,125000.0,47355.0,16326.0,46207.0,32703,Apopka,FL,275000.0,355140.0,0.0
47.0,-122.9,271500.0,66729.0,16111.0,38133.0,98501,Olympia,WA,369900.0,469450.0,237290.0
34.2,-118.45,342100.0,38847.0,16256.0,51145.0,91405,Los Angeles,CA,549000.0,0.0,425000.0
35.07,-106.58,159100.0,27207.0,17127.0,38647.0,87108,Albuquerque,NM,184453.5,315000.0,129450.0
35.17,-85.21,163400.0,59644.0,16047.0,40042.0,37343,Chattanooga,TN,250000.0,299250.0,0.0
34.86,-82.29,198100.0,49964.0,16097.0,35151.0,29615,Greenville,SC,295000.0,364900.0,0.0
29.94,-95.25,109200.0,56575.0,13239.0,43317.0,77396,Atascocita,TX,222990.0,366291.5,149900.0
42.8,-86.1,146400.0,55297.0,15996.0,44760.0,49424,Holland,MI,299900.0,349000.0,0.0
29.93,-90.1,299100.0,50765.0,15314.0,31695.0,70115,New Orleans,LA,434950.0,499900.0,0.0
43.78,-88.43,124800.0,46468.0,17582.0,41651.0,54935,Fond du Lac,WI,109900.0,247400.0,85000.0
32.72,-79.94,253400.0,59216.0,15721.0,35850.0,29412,Charleston,SC,375000.0,549900.0,151750.0
40.74,-73.94,654900.0,47142.0,10429.0,25484.0,11101,New York,NY,995000.0,1058789.0,0.0
33.51,-111.99,344900.0,52389.0,16763.0,36065.0,85018,Phoenix,AZ,649000.0,755000.0,165000.0
41.6,-86.7,131300.0,48132.0,17003.0,43650.0,46350,La Porte,IN,154900.0,299000.0,88500.0
38.69,-121.27,215500.0,50928.0,17235.0,44147.0,95610,Citrus Heights,CA,349950.0,0.0,299900.0
33.78,-118.2,296200.0,31334.0,16425.0,58911.0,90813,Long Beach,CA,397000.0,0.0,385000.0
40.76,-73.94,433600.0,48720.0,17101.0,38875.0,11106,New York,NY,675000.0,0.0,0.0
32.25,-110.95,197100.0,27009.0,17789.0,43989.0,85719,Tucson,AZ,250000.0,338250.0,0.0
40.55,-74.46,327800.0,91164.0,17026.0,55961.0,08854,Piscataway,NJ,322400.0,0.0,265000.0
36.15,-86.9,170000.0,43625.0,14130.0,35457.0,37209,Nashville,TN,399900.0,474900.0,0.0
33.61,-111.89,360000.0,76522.0,16811.0,36056.0,85260,Scottsdale,AZ,449000.0,540000.0,0.0
32.58,-93.69,182100.0,50526.0,15267.0,38456.0,71111,Bossier City,LA,272499.5,0.0,0.0
33.9,-83.32,159700.0,31319.0,15949.0,39952.0,30605,Athens,GA,182000.0,369900.0,122500.0
21.32,-157.82,595100.0,63379.0,18316.0,45007.0,96822,Honolulu,HI,534000.0,1425000.0,343000.0
30.16,-92.03,211900.0,69131.0,14530.0,34810.0,70508,Lafayette,LA,262000.0,322000.0,0.0
33.76,-118.15,691700.0,72653.0,17318.0,32031.0,90803,Long Beach,CA,1105000.0,1449000.0,0.0
35.9,-83.8,125200.0,36942.0,16547.0,39087.0,37920,Knoxville,TN,165000.0,315000.0,100000.0
41.88,-71.39,186300.0,32614.0,18421.0,45199.0,02860,Pawtucket,RI,199900.0,0.0,189000.0
40.8,-77.9,242600.0,39558.0,17773.0,42812.0,16801,State College,PA,349000.0,0.0,0.0
32.95,-96.89,146800.0,56985.0,16631.0,46364.0,75006,Carrollton,TX,251000.0,0.0,0.0
39.97,-74.26,156500.0,36595.0,17211.0,33217.0,08757,Berkeley,NJ,187500.0,0.0,185289.0
42.6,-83.9,175800.0,67477.0,15977.0,42931.0,48843,Howell,MI,279900.0,315000.0,0.0
31.3,-89.4,183200.0,54592.0,15148.0,37492.0,39402,Hattiesburg,MS,219900.0,295000.0,76000.0
47.66,-122.3,613900.0,45560.0,15939.0,43924.0,98105,Seattle,WA,850000.0,0.0,0.0
34.03,-117.28,160600.0,41198.0,16209.0,56505.0,92324,Colton,CA,309900.0,0.0,242499.5
43.1,-77.43,186400.0,76552.0,16748.0,41104.0,14450,Perinton,NY,229900.0,262450.0,0.0
37.4,-121.6,541200.0,102413.0,17095.0,46896.0,94550,Livermore,CA,829950.0,0.0,0.0
39.29,-76.44,195300.0,52355.0,16730.0,42154.0,21221,Essex,MD,209000.0,0.0,139900.0
33.84,-118.35,628700.0,76082.0,17183.0,44383.0,90503,Torrance,CA,857500.0,0.0,0.0
30.55,-87.21,140900.0,43992.0,15734.0,37399.0,32514,Pensacola,FL,179900.0,339900.0,89993.0
29.3,-95.2,109600.0,52507.0,16235.0,46627.0,77511,Alvin,TX,238995.0,399000.0,139000.0
29.87,-95.54,121700.0,53194.0,15976.0,45081.0,77040,Houston,TX,234950.0,335000.0,0.0
42.0,-71.5,181900.0,36058.0,17062.0,41186.0,02895,Woonsocket,RI,199900.0,0.0,194700.0
28.68,-81.27,198600.0,65751.0,16444.0,42012.0,32708,Winter Springs,FL,289500.0,379500.0,0.0
35.0,-82.3,137500.0,49773.0,15609.0,39561.0,29687,Taylors,SC,237900.0,289950.0,0.0
37.2,-77.5,147000.0,39607.0,15640.0,40542.0,23803,Petersburg,VA,129900.0,0.0,77038.0
34.17,-118.37,464200.0,48638.0,15970.0,37180.0,91601,Los Angeles,CA,837000.0,0.0,0.0
42.02,-91.66,137000.0,55878.0,16839.0,40149.0,52402,Cedar Rapids,IA,155500.0,239950.0,95000.0
33.34,-112.0,214100.0,66416.0,16978.0,37993.0,85044,Phoenix,AZ,299999.5,449947.5,0.0
47.55,-122.26,350700.0,52276.0,15127.0,42731.0,98118,Seattle,WA,599000.0,830000.0,0.0
37.71,-122.16,378200.0,63388.0,16710.0,45560.0,94577,San Leandro,CA,649475.0,0.0,628500.0
38.99,-76.54,406300.0,84054.0,15675.0,36012.0,21401,Annapolis,MD,529000.0,598999.5,0.0
28.76,-81.36,245100.0,75344.0,15986.0,40571.0,32746,Lake Mary,FL,392000.0,469900.0,0.0
42.7,-86.1,128000.0,47522.0,16600.0,44977.0,49423,Holland,MI,231950.0,350000.0,130000.0
41.94,-71.29,276200.0,67039.0,16882.0,43593.0,02703,Attleboro,MA,310000.0,469000.0,192500.0
35.72,-97.43,229500.0,71516.0,15181.0,39872.0,73034,Edmond,OK,364620.0,379900.0,0.0
40.5,-89.6,102100.0,48104.0,17576.0,43810.0,61554,Pekin,IL,95450.0,239000.0,59900.0
45.52,-122.86,240700.0,60407.0,23952.0,63036.0,97006,Beaverton,OR,375000.0,595000.0,275000.0
39.96,-83.09,101800.0,40815.0,16783.0,42104.0,43204,Columbus,OH,104950.0,0.0,78000.0
0.0,0.0,0.0,0.0,0.0,0.0,00949,Candelaria Arenas,NM,86700.0,0.0,0.0
41.76,-88.38,174200.0,54401.0,17259.0,53013.0,60506,Aurora,IL,189900.0,0.0,144900.0
37.9,-121.4,131700.0,43559.0,16324.0,65004.0,95206,Stockton,CA,299950.0,0.0,228937.5
42.84,-78.75,130400.0,57375.0,17062.0,39889.0,14224,West Seneca,NY,164500.0,289900.0,0.0
36.9,-87.5,108400.0,38883.0,17061.0,42479.0,42240,Hopkinsville,KY,137500.0,302500.0,76000.0
40.25,-74.05,380000.0,53160.0,16144.0,39158.0,07712,Ocean,NJ,534900.0,735000.0,279000.0
38.8,-90.27,117000.0,51707.0,17074.0,43000.0,63033,Florissant,MO,109900.0,0.0,83500.0
29.6,-95.8,215700.0,110294.0,10923.0,33682.0,77406,Richmond,TX,307990.0,349900.0,0.0
38.19,-85.84,110800.0,38829.0,16768.0,40746.0,40216,Louisville,KY,124900.0,0.0,94995.0
47.9,-122.26,200900.0,41517.0,15996.0,39380.0,98204,Paine Field-Lake Stickney,WA,342014.0,0.0,289900.0
33.56,-79.08,188900.0,45905.0,11526.0,24446.0,29576,Murrells Inlet,SC,286900.0,337371.5,134900.0
39.74,-74.97,221600.0,79746.0,17007.0,50589.0,08081,Winslow,NJ,175000.0,349900.0,119950.0
33.12,-117.18,369700.0,54441.0,15990.0,42906.0,92078,San Marcos,CA,664500.0,899700.0,435000.0
44.1,-87.7,116500.0,45277.0,17175.0,40220.0,54220,Manitowoc,WI,117000.0,0.0,0.0
37.99,-84.49,128700.0,39482.0,16121.0,35227.0,40517,Lexington,KY,159900.0,0.0,119900.0
41.46,-81.79,86600.0,39473.0,16956.0,39778.0,44111,Cleveland,OH,89900.0,0.0,74900.0
37.72,-122.08,475300.0,73099.0,16117.0,42209.0,94546,Castro Valley,CA,749000.0,0.0,0.0
33.59,-112.11,113300.0,42937.0,16370.0,43233.0,85029,Phoenix,AZ,214000.0,0.0,185000.0
38.77,-121.28,260700.0,60513.0,15856.0,41192.0,95678,Roseville,CA,399900.0,0.0,287000.0
40.77,-74.17,275900.0,34998.0,17436.0,50478.0,07104,Newark,NJ,280000.0,0.0,199000.0
47.69,-117.45,141600.0,45432.0,17637.0,42137.0,99205,Spokane,WA,180000.0,0.0,159900.0
33.2,-117.1,359500.0,55839.0,17058.0,48922.0,92026,Escondido,CA,569450.0,891858.0,425850.0
